Front_X;Front_Y;Front_Z;Back_X;Back_Y;Back_Z;Timestamp;SpeedShip;Latitude;Longitude;Depth;DistToFloor;Heading;Pitch;Roll;M_UP;M_Down;M_Right;M_Left;VertForvUp;VertForvDown;VertBackUp;VertBackDown;GorizForw;GorizBack;Bat1_50_I;Bat2_50_I;Bat3_50_I;Bat4_50_I;Bat1_27_I;Bat2_27_I;Bat3_27_I;Bat4_27_I;SpeedShipEML;EmiErrorFlag
15206;-4158;-32838;12708;-5576;-31976;1573221654367897;0.186916;0.785870007;0.61770203;0.178496;3.68082;4.62892;-0.0403267;0.0582801;-0.00395105;-0.00166656;0.015929;0.00730913;0.0103801;-0.00514947;-0.00790834;0.0135322;-19.1646;13.0291;1.40625;1.95312;3.0625;0;1.74;2.1;1.96;0;0;0
15238;-4176;-32814;12732;-5546;-31974;1573221654387890;0.186916;0.785870007;0.61770203;0.178496;3.68082;4.62892;-0.0403267;0.0582801;-0.00395105;-0.00166656;0.015929;0.00730913;0.0103801;-0.00514947;-0.00790834;0.0135322;-19.1646;13.0291;1.40625;1.95312;3.0625;0;1.74;2.1;1.96;0;0;0
15238;-4188;-32828;12716;-5568;-32070;1573221654407923;0.186916;0.785870007;0.61770203;0.178496;3.68082;4.62892;-0.0403267;0.0582801;0;0;0;0;0;-0.00514947;-0.00790834;0;-19.1646;13.0291;1.59375;2.01562;1.03125;0;1.74;2.07;1.9;0;0;0
15234;-4180;-32844;12716;-5568;-32070;1573221654428036;0.186916;0.785870007;0.61770203;0.178496;3.68047;4.62892;-0.0403267;0.0582801;0;0;0;0;0;0;0;0;0;0;1.59375;2.01562;1.03125;0;1.74;2.07;1.9;0;0;0
15214;-4170;-32824;12792;-5580;-32050;1573221654447915;0.186916;0.785870007;0.61770203;0.178496;3.68047;4.62892;-0.0403267;0.0582801;0;0;0;0;0;0;0;0;0;0;1.59375;2.01562;1.03125;0;1.74;2.07;1.9;0;0;0
15194;-4192;-32818;12704;-5586;-32008;1573221654467932;0.186916;0.785870007;0.61770203;0.178496;3.68047;4.62892;-0.0403267;0.0582801;0;0;0;0;0;0;0;0;0;0;1.59375;2.01562;1.03125;0;1.74;2.07;1.9;0;0;0
15176;-4202;-32830;12738;-5552;-31972;1573221654487907;0.186916;0.785870007;0.61770203;0.15512;3.68047;4.6288;-0.0409752;0.0588229;0;0;0;0;0;0;0;0;0;0;1.59375;2.01562;1.03125;0;1.74;2.07;1.9;0;0;0
15188;-4196;-32796;12758;-5616;-31986;1573221654507918;0.186916;0.785870007;0.61770203;0.15512;3.68047;4.6288;-0.0409752;0.0588229;0;0;0;0;0;0;0;0;0;0;1.59375;2.01562;1.03125;0;1.74;2.07;1.9;0;0;0
15218;-4214;-32858;12750;-5606;-32042;1573221654527923;0.186916;0.785870007;0.61770203;0.15512;3.68047;4.6288;-0.0409752;0.0588229;0;0;0;0;0;0;0;0;0;0;1.59375;2.01562;1.03125;0;1.74;2.07;1.9;0;0;0
15246;-4226;-32876;12770;-5608;-32094;1573221654547921;0.186916;0.785870007;0.61770203;0.15512;3.68047;4.6288;-0.0409752;0.0588229;0;0;0;0;0;0;0;0;0;0;1.59375;2.01562;1.03125;0;1.74;2.07;1.9;0;0;0
15188;-4194;-32834;12728;-5632;-32106;1573221654567911;0.186916;0.785870007;0.61770203;0.15512;3.68047;4.6288;-0.0409752;0.0588229;0;0;0;0;0;0;0;0;0;0;1.59375;2.01562;1.03125;0;1.74;2.07;1.9;0;0;0
15220;-4230;-32842;12774;-5596;-32108;1573221654587917;0.186916;0.785870007;0.61770203;0.15512;3.68047;4.6288;-0.0409752;0.0588229;0;0;0;0;0;0;0;0;0;0;1.59375;2.01562;1.03125;0;1.74;2.07;1.9;0;0;0
15222;-4216;-32802;12778;-5636;-32086;1573221654607920;0.186916;0.785870007;0.61770203;0.15512;3.68047;4.6288;-0.0409752;0.0588229;0;0;0;0;0;0;0;0;0;0;1.59375;2.01562;1.03125;0;1.74;2.07;1.9;0;0;0
15266;-4238;-32812;12770;-5640;-32016;1573221654627896;0.186916;0.785870007;0.61770203;0.15512;3.68047;4.6288;-0.0409752;0.0588229;0;0;0;0;0;0;0;0;0;0;1.59375;2.01562;1.03125;0;1.74;2.07;1.9;0;0;0
15282;-4242;-32824;12742;-5664;-31998;1573221654647898;0.186916;0.785870007;0.61770203;0.15512;3.68047;4.6288;-0.0409752;0.0588229;0;0;0;0;0;0;0;0;0;0;1.59375;2.01562;1.03125;0;1.74;2.07;1.9;0;0;0
15268;-4228;-32768;12800;-5666;-31954;1573221654667901;0.186916;0.785870007;0.61770203;0.15512;3.68047;4.6288;-0.0409752;0.0588229;0;0;0;0;0;0;0;0;0;0;1.59375;2.01562;1.03125;0;1.74;2.07;1.9;0;0;0
15230;-4246;-32748;12698;-5624;-31998;1573221654687894;0.186916;0.785870007;0.61770203;0.15512;3.68047;4.6288;-0.0409752;0.0588229;0;0;0;0;0;0;0;0;0;0;1.59375;2.01562;1.03125;0;1.74;2.07;1.9;0;0;0
15244;-4258;-32722;12830;-5660;-31982;1573221654707919;0.186916;0.785870039;0.617702024;0.15512;-0;4.6288;-0.0409752;0.0588229;0;0;0;0;0;0;0;0;0;0;1.59375;2.01562;1.03125;0;1.74;2.07;1.9;0;0;0
15224;-4258;-32752;12748;-5634;-32016;1573221654727920;0.186916;0.785870039;0.617702024;0.136104;-0;4.629;-0.0412523;0.0583126;0;0;0;0;0;0;0;0;0;0;1.59375;2.01562;1.03125;0;1.74;2.07;1.9;0;0;0
15234;-4256;-32696;12774;-5720;-32100;1573221654747908;0.186916;0.785870039;0.617702024;0.136104;-0;4.629;-0.0412523;0.0583126;0;0;0;0;0;0;0;0;0;0;1.59375;2.01562;1.03125;0;1.74;2.07;1.9;0;0;0
15188;-4242;-32678;12742;-5634;-32100;1573221654767908;0.186916;0.785870039;0.617702024;0.136104;-0;4.629;-0.0412523;0.0583126;0;0;0;0;0;0;0;0;0;0;1.59375;2.01562;1.03125;0;1.74;2.07;1.9;0;0;0
15244;-4256;-32716;12804;-5678;-32038;1573221654787903;0.186916;0.785870039;0.617702024;0.136104;-0;4.629;-0.0412523;0.0583126;0;0;0;0;0;0;0;0;0;0;1.59375;2.01562;1.03125;0;1.74;2.07;1.9;0;0;0
15222;-4276;-32812;12802;-5668;-31976;1573221654807888;0.186916;0.785870039;0.617702024;0.136104;-0;4.629;-0.0412523;0.0583126;0;0;0;0;0;0;0;0;0;0;1.59375;2.01562;1.03125;0;1.74;2.07;1.9;0;0;0
15256;-4264;-32828;12752;-5674;-31962;1573221654827917;0.186916;0.785870039;0.617702024;0.136104;-0;4.629;-0.0412523;0.0583126;0;0;0;0;0;0;0;0;0;0;1.59375;2.01562;1.03125;0;1.74;2.07;1.9;0;0;0
15288;-4274;-32738;12770;-5684;-31964;1573221654847907;0.186916;0.785870039;0.617702024;0.136104;-0;4.629;-0.0412523;0.0583126;0;0;0;0;0;0;0;0;0;0;1.59375;2.01562;1.03125;0;1.74;2.07;1.9;0;0;0
15288;-4276;-32770;12784;-5690;-31966;1573221654867890;0.186916;0.785870039;0.617702024;0.136104;-0;4.629;-0.0412523;0.0583126;0;0;0;0;0;0;0;0;0;0;1.59375;2.01562;1.03125;0;1.74;2.07;1.9;0;0;0
15332;-4296;-32748;12826;-5712;-31952;1573221654887894;0.186916;0.785870039;0.617702024;0.136104;-0;4.629;-0.0412523;0.0583126;0;0;0;0;0;0;0;0;0;0;1.59375;2.01562;1.03125;0;1.74;2.07;1.9;0;0;0
15330;-4284;-32722;12766;-5658;-31970;1573221654907958;0.186916;0.785870039;0.617702024;0.136104;-0;4.629;-0.0412523;0.0583126;0;0;0;0;0;0;0;0;0;0;1.59375;2.01562;1.03125;0;1.74;2.07;1.9;0;0;0
15294;-4264;-32748;12826;-5666;-32094;1573221654928036;0.186916;0.785870039;0.617702024;0.132513;-0;4.62941;-0.0408437;0.0567145;0;0;0;0;0;0;0;0;0;0;1.59375;2.01562;1.03125;0;1.74;2.07;1.9;0;0;0
15278;-4284;-32768;12764;-5680;-32060;1573221654947938;0.186916;0.785870039;0.617702024;0.132513;-0;4.62941;-0.0408437;0.0567145;0;0;0;0;0;0;0;0;0;0;1.59375;2.01562;1.03125;0;1.74;2.07;1.9;0;0;0
15262;-4306;-32642;12812;-5680;-32002;1573221654967900;0.186916;0.785870039;0.617702024;0.132513;-0;4.62941;-0.0408437;0.0567145;0;0;0;0;0;0;0;0;0;0;1.59375;2.01562;1.03125;0;1.74;2.07;1.9;0;0;0
15214;-4314;-32680;12766;-5714;-32018;1573221654987898;0.186916;0.785870039;0.617702024;0.132513;-0;4.62941;-0.0408437;0.0567145;0;0;0;0;0;0;0;0;0;0;1.59375;2.01562;1.03125;0;1.74;2.07;1.9;0;0;0
15262;-4302;-32674;12840;-5684;-32000;1573221655007905;0.186916;0.785870039;0.617702024;0.132513;-0;4.62941;-0.0408437;0.0567145;0;0;0;0;0;0;0;0;0;0;1.59375;2.01562;1.03125;0;1.74;2.07;1.9;0;0;0
15262;-4298;-32654;12770;-5744;-31916;1573221655027908;0.186916;0.785870039;0.617702024;0.132513;-0;4.62941;-0.0408437;0.0567145;0;0;0;0;0;0;0;0;0;0;1.59375;2.01562;1.03125;0;1.74;2.07;1.9;0;0;0
15352;-4302;-32648;12780;-5718;-31968;1573221655047917;0.186916;0.785870039;0.617702024;0.132513;-0;4.62941;-0.0408437;0.0567145;0;0;0;0;0;0;0;0;0;0;1.59375;2.01562;1.03125;0;1.74;2.07;1.9;0;0;0
15306;-4334;-32716;12814;-5736;-31956;1573221655067909;0.186916;0.785870039;0.617702024;0.132513;-0;4.62941;-0.0408437;0.0567145;0;0;0;0;0;0;0;0;0;0;1.59375;2.01562;1.03125;0;1.74;2.07;1.9;0;0;0
15342;-4314;-32726;12836;-5698;-32046;1573221655087919;0.186916;0.785870039;0.617702024;0.132513;-0;4.62941;-0.0408437;0.0567145;0;0;0;0;0;0;0;0;0;0;1.59375;2.01562;1.03125;0;1.74;2.07;1.9;0;0;0
15332;-4342;-32774;12762;-5788;-32058;1573221655107936;0.186916;0.785870039;0.617702024;0.132513;-0;4.62941;-0.0408437;0.0567145;0;0;0;0;0;0;0;0;0;0;1.59375;2.01562;1.03125;0;1.74;2.07;1.9;0;0;0
15270;-4342;-32752;12794;-5760;-31984;1573221655127899;0.186916;0.785870039;0.617702024;0.132513;-0;4.63005;-0.0400641;0.0543745;0;0;0;0;0;0;0;0;0;0;1.59375;2.01562;1.03125;0;1.74;2.07;1.9;0;0;0
15274;-4346;-32696;12838;-5774;-31934;1573221655147895;0.186916;0.785870039;0.617702024;0.132513;-0;4.63005;-0.0400641;0.0543745;0;0;0;0;0;0;0;0;0;0;1.59375;2.01562;1.03125;0;1.74;2.07;1.9;0;0;0
15252;-4352;-32696;12766;-5808;-31932;1573221655167905;0.186916;0.785870039;0.617702024;0.132513;-0;4.63005;-0.0400641;0.0543745;0;0;0;0;0;0;0;0;0;0;1.59375;2.01562;1.03125;0;1.74;2.07;1.9;0;0;0
15318;-4372;-32736;12808;-5748;-31966;1573221655187923;0.186916;0.785870039;0.617702024;0.132513;-0;4.63005;-0.0400641;0.0543745;0;0;0;0;0;0;0;0;0;0;1.59375;2.01562;1.03125;0;1.74;2.07;1.9;0;0;0
15322;-4398;-32704;12764;-5796;-31998;1573221655207907;0.186916;0.785870039;0.617702024;0.132513;-0;4.63005;-0.0400641;0.0543745;0;0;0;0;0;0;0;0;0;0;1.59375;2.01562;1.03125;0;1.74;2.07;1.9;0;0;0
15280;-4362;-32752;12802;-5814;-32008;1573221655227893;0.186916;0.785870039;0.617702024;0.132513;-0;4.63005;-0.0400641;0.0543745;0;0;0;0;0;0;0;0;0;0;1.59375;2.01562;1.03125;0;1.74;2.07;1.9;0;0;0
15260;-4374;-32720;12762;-5876;-32038;1573221655247913;0.186916;0.785870039;0.617702024;0.132513;-0;4.63005;-0.0400641;0.0543745;0;0;0;0;0;0;0;0;0;0;1.59375;2.01562;1.03125;0;1.74;2.07;1.9;0;0;0
15224;-4396;-32612;12840;-5786;-31920;1573221655267887;0.186916;0.785870039;0.617702024;0.132513;-0;4.63005;-0.0400641;0.0543745;0;0;0;0;0;0;0;0;0;0;1.59375;2.01562;1.03125;0;1.74;2.07;1.9;0;0;0
15272;-4432;-32658;12754;-5798;-31922;1573221655287921;0.186916;0.785870039;0.617702024;0.132513;-0;4.63005;-0.0400641;0.0543745;0;0;0;0;0;0;0;0;0;0;1.59375;2.01562;1.03125;0;1.74;2.07;1.9;0;0;0
15276;-4434;-32656;12810;-5812;-31924;1573221655307900;0.186916;0.785870039;0.617702024;0.132513;-0;4.63005;-0.0400641;0.0543745;0;0;0;0;0;0;0;0;0;0;1.59375;2.01562;1.03125;0;1.74;2.07;1.9;0;0;0
15306;-4430;-32662;12774;-5818;-31968;1573221655327914;0.186916;0.785870039;0.617702024;0.132513;-0;4.63005;-0.0400641;0.0543745;0;0;0;0;0;0;0;0;0;0;1.59375;2.01562;1.03125;0;1.74;2.07;1.9;0;0;0
15330;-4436;-32640;12768;-5858;-32034;1573221655347924;0.186916;0.785870039;0.617702024;0.136104;-0;4.63074;-0.0391123;0.0513764;0;0;0;0;0;0;0;0;0;0;1.59375;2.01562;1.03125;0;1.74;2.07;1.9;0;0;0
15328;-4478;-32624;12746;-5854;-32028;1573221655367888;0.186916;0.785870039;0.617702024;0.136104;-0;4.63074;-0.0391123;0.0513764;0;0;0;0;0;0;0;0;0;0;1.59375;2.01562;1.03125;0;1.74;2.07;1.9;0;0;0
15290;-4478;-32652;12782;-5888;-31972;1573221655387918;0.186916;0.785870039;0.617702024;0.136104;-0;4.63074;-0.0391123;0.0513764;0;0;0;0;0;0;0;0;0;0;1.59375;2.01562;1.03125;0;1.74;2.07;1.9;0;0;0
15284;-4454;-32666;12744;-5880;-31922;1573221655408096;0.186916;0.785870039;0.617702024;0.136104;-0;4.63074;-0.0391123;0.0513764;0;0;0;0;0;0;0;0;0;0;1.59375;2.01562;1.03125;0;1.74;2.07;1.9;0;0;0
15250;-4476;-32674;12772;-5906;-31956;1573221655427020;0.186916;0.785870039;0.617702024;0.136104;-0;4.63074;-0.0391123;0.0513764;0;0;0;0;0;0;0;0;0;0;1.59375;1.98438;1.03125;0;1.74;2.04;1.9;0;0;0
15316;-4496;-32660;12714;-5902;-32020;1573221655446892;0.186916;0.785870039;0.617702024;0.136104;-0;4.63074;-0.0391123;0.0513764;0;0;0;0;0;0;0;0;0;0;1.59375;1.98438;1.03125;0;1.74;2.04;1.9;0;0;0
15340;-4530;-32672;12716;-5958;-31978;1573221655466942;0.186916;0.785870039;0.617702024;0.136104;-0;4.63074;-0.0391123;0.0513764;0;0;0;0;0;0;0;0;0;0;1.59375;1.98438;1.03125;0;1.74;2.04;1.9;0;0;0
15270;-4534;-32700;12748;-5922;-31990;1573221655486909;0.186916;0.785870039;0.617702024;0.136104;-0;4.63074;-0.0391123;0.0513764;0;0;0;0;0;0;0;0;0;0;1.59375;1.98438;1.03125;0;1.74;2.04;1.9;0;0;0
15242;-4558;-32708;12710;-5952;-31900;1573221655506892;0.186916;0.785870039;0.617702024;0.136104;-0;4.63074;-0.0391123;0.0513764;0;0;0;0;0;0;0;0;0;0;1.59375;1.98438;1.03125;0;1.74;2.04;1.9;0;0;0
15262;-4536;-32746;12768;-5936;-31886;1573221655526910;0.186916;0.785870039;0.617702024;0.136104;-0;4.63074;-0.0391123;0.0513764;0;0;0;0;0;0;0;0;0;0;1.59375;1.98438;1.03125;0;1.74;2.04;1.9;0;0;0
15326;-4608;-32716;12702;-5970;-31902;1573221655546904;0.186916;0.785870039;0.617702024;0.148242;-0;4.63113;-0.0383949;0.048419;0;0;0;0;0;0;0;0;0;0;1.59375;1.98438;1.03125;0;1.74;2.04;1.9;0;0;0
15316;-4606;-32686;12728;-6054;-31908;1573221655566905;0.186916;0.785870039;0.617702024;0.148242;-0;4.63113;-0.0383949;0.048419;0;0;0;0;0;0;0;0;0;0;1.59375;1.98438;1.03125;0;1.74;2.04;1.9;0;0;0
15294;-4626;-32648;12722;-6012;-31976;1573221655586888;0.186916;0.785870039;0.617702024;0.148242;-0;4.63113;-0.0383949;0.048419;0;0;0;0;0;0;0;0;0;0;1.59375;1.98438;1.03125;0;1.74;2.04;1.9;0;0;0
15322;-4650;-32602;12736;-6032;-32002;1573221655606913;0.186916;0.785870039;0.617702024;0.148242;-0;4.63113;-0.0383949;0.048419;0;0;0;0;0;0;0;0;0;0;1.59375;1.98438;1.03125;0;1.74;2.04;1.9;0;0;0
15282;-4626;-32628;12696;-6060;-32014;1573221655626901;0.186916;0.785870039;0.617702024;0.148242;-0;4.63113;-0.0383949;0.048419;0;0;0;0;0;0;0;0;0;0;1.59375;1.98438;1.03125;0;1.74;2.04;1.9;0;0;0
15272;-4672;-32602;12676;-6086;-31996;1573221655646914;0.186916;0.785870039;0.617702024;0.148242;-0;4.63113;-0.0383949;0.048419;0;0;0;0;0;0;0;0;0;0;1.59375;1.98438;1.03125;0;1.74;2.04;1.9;0;0;0
15238;-4662;-32654;12704;-6098;-31942;1573221655666887;0.186916;0.785870039;0.617702024;0.148242;-0;4.63113;-0.0383949;0.048419;0;0;0;0;0;0;0;0;0;0;1.59375;1.98438;1.03125;0;1.74;2.04;1.9;0;0;0
15312;-4740;-32740;12704;-6130;-31920;1573221655686901;0.186916;0.785870039;0.617702024;0.148242;-0;4.63113;-0.0383949;0.048419;0;0;0;0;0;0;0;0;0;0;1.59375;1.98438;1.03125;0;1.74;2.04;1.9;0;0;0
15282;-4734;-32778;12680;-6134;-31872;1573221655706906;0.186916;0.785870039;0.617702024;0.148242;-0;4.63113;-0.0383949;0.048419;0;0;0;0;0;0;0;0;0;0;1.59375;1.98438;1.03125;0;1.74;2.04;1.9;0;0;0
15318;-4736;-32786;12698;-6164;-31866;1573221655726884;0.186916;0.785870039;0.617702024;0.148242;-0;4.63113;-0.0383949;0.048419;0;0;0;0;0;0;0;0;0;0;1.59375;1.98438;1.03125;0;1.74;2.04;1.9;0;0;0
15308;-4754;-32758;12702;-6228;-31916;1573221655746934;0.186916;0.785870039;0.617702024;0.148242;-0;4.63113;-0.0383949;0.048419;0;0;0;0;0;0;0;0;0;0;1.59375;1.98438;1.03125;0;1.74;2.04;1.9;0;0;0
15264;-4780;-32670;12716;-6196;-31954;1573221655766907;0.186916;0.785870071;0.617702021;0.148242;-0;4.6312;-0.0382199;0.0454143;0;0;0;0;0;0;0;0;0;0;1.59375;1.98438;1.03125;0;1.74;2.04;1.9;0;0;0
15238;-4802;-32636;12658;-6200;-32012;1573221655786913;0.186916;0.785870071;0.617702021;0.148242;-0;4.6312;-0.0382199;0.0454143;0;0;0;0;0;0;0;0;0;0;1.59375;1.98438;1.03125;0;1.74;2.04;1.9;0;0;0
15250;-4798;-32582;12706;-6226;-31890;1573221655806902;0.186916;0.785870071;0.617702021;0.148242;-0;4.6312;-0.0382199;0.0454143;0;0;0;0;0;0;0;0;0;0;1.59375;1.98438;1.03125;0;1.74;2.04;1.9;0;0;0
15276;-4834;-32674;12636;-6224;-31886;1573221655826918;0.186916;0.785870071;0.617702021;0.148242;-0;4.6312;-0.0382199;0.0454143;0;0;0;0;0;0;0;0;0;0;1.59375;1.98438;1.03125;0;1.74;2.04;1.9;0;0;0
15266;-4868;-32642;12686;-6250;-31894;1573221655846898;0.186916;0.785870071;0.617702021;0.148242;-0;4.6312;-0.0382199;0.0454143;0;0;0;0;0;0;0;0;0;0;1.59375;1.98438;1.03125;0;1.74;2.04;1.9;0;0;0
15266;-4858;-32570;12668;-6276;-31980;1573221655866905;0.186916;0.785870071;0.617702021;0.148242;-0;4.6312;-0.0382199;0.0454143;0;0;0;0;0;0;0;0;0;0;1.59375;1.98438;1.03125;0;1.74;2.04;1.9;0;0;0
15304;-4910;-32594;12664;-6316;-31930;1573221655886906;0.186916;0.785870071;0.617702021;0.148242;-0;4.6312;-0.0382199;0.0454143;0;0;0;0;0;0;0;0;0;0;1.59375;1.98438;1.03125;0;1.74;2.04;1.9;0;0;0
15304;-4898;-32610;12680;-6264;-31844;1573221655906906;0.186916;0.785870071;0.617702021;0.148242;-0;4.6312;-0.0382199;0.0454143;0;0;0;0;0;0;0;0;0;0;1.59375;1.98438;1.03125;0;1.74;2.04;1.9;0;0;0
15264;-4958;-32622;12644;-6302;-31898;1573221655926951;0.186916;0.785870071;0.617702021;0.148242;-0;4.6312;-0.0382199;0.0454143;0;0;0;0;0;0;0;0;0;0;1.59375;1.98438;1.03125;0;1.74;2.04;1.9;0;0;0
15268;-4930;-32632;12636;-6308;-31932;1573221655946919;0.186916;0.785870071;0.617702021;0.148242;-0;4.6312;-0.0382199;0.0454143;0;0;0;0;0;0;0;0;0;0;1.59375;1.98438;1.03125;0;1.74;2.04;1.9;0;0;0
15252;-4960;-32606;12660;-6376;-31968;1573221655966886;0.186916;0.785870071;0.617702021;0.148242;-0;4.63094;-0.0391327;0.0427954;0;0;0;0;0;0;0;0;0;0;1.59375;1.98438;1.03125;0;1.74;2.04;1.9;0;0;0
15234;-4998;-32674;12612;-6400;-31960;1573221655986934;0.186916;0.785870071;0.617702021;0.148242;-0;4.63094;-0.0391327;0.0427954;0;0;0;0;0;0;0;0;0;0;1.59375;1.98438;1.03125;0;1.74;2.04;1.9;0;0;0
15306;-4992;-32640;12650;-6406;-31854;1573221656006904;0.186916;0.785870071;0.617702021;0.148242;-0;4.63094;-0.0391327;0.0427954;0;0;0;0;0;0;0;0;0;0;1.59375;1.98438;1.03125;0;1.74;2.04;1.9;0;0;0
15280;-5000;-32678;12610;-6444;-31842;1573221656026906;0.186916;0.785870071;0.617702021;0.148242;-0;4.63094;-0.0391327;0.0427954;0;0;0;0;0;0;0;0;0;0;1.59375;1.98438;1.03125;0;1.74;2.04;1.9;0;0;0
15280;-5010;-32632;12652;-6408;-31852;1573221656046892;0.186916;0.785870071;0.617702021;0.148242;-0;4.63094;-0.0391327;0.0427954;0;0;0;0;0;0;0;0;0;0;1.59375;1.98438;1.03125;0;1.74;2.04;1.9;0;0;0
15284;-5046;-32570;12604;-6444;-31864;1573221656066895;0.186916;0.785870071;0.617702021;0.148242;-0;4.63094;-0.0391327;0.0427954;0;0;0;0;0;0;0;0;0;0;1.59375;1.98438;1.03125;0;1.74;2.04;1.9;0;0;0
15266;-5046;-32578;12654;-6428;-31880;1573221656087031;0.186916;0.785870071;0.617702021;0.148242;-0;4.63094;-0.0391327;0.0427954;0;0;0;0;0;0;0;0;0;0;1.59375;1.98438;1.03125;0;1.74;2.04;1.9;0;0;0
15246;-5068;-32532;12604;-6490;-31974;1573221656106922;0.186916;0.785870071;0.617702021;0.148242;-0;4.63094;-0.0391327;0.0427954;0;0;0;0;0;0;0;0;0;0;1.59375;1.98438;1.03125;0;1.74;2.04;1.9;0;0;0
15234;-5080;-32598;12664;-6456;-31970;1573221656126903;0.186916;0.785870071;0.617702021;0.148242;-0;4.63094;-0.0391327;0.0427954;0;0;0;0;0;0;0;0;0;0;1.59375;1.98438;1.03125;0;1.74;2.04;1.9;0;0;0
15242;-5100;-32586;12618;-6426;-31918;1573221656146889;0.186916;0.785870071;0.617702021;0.148242;-0;4.63094;-0.0391327;0.0427954;0;0;0;0;0;0;0;0;0;0;1.59375;1.98438;1.03125;0;1.74;2.04;1.9;0;0;0
15232;-5104;-32586;12596;-6482;-31882;1573221656166918;0.186916;0.785870071;0.617702021;0.148242;-0;4.63094;-0.0391327;0.0427954;0;0;0;0;0;0;0;0;0;0;1.59375;1.98438;1.03125;0;1.74;2.04;1.9;0;0;0
15284;-5108;-32654;12634;-6508;-31816;1573221656186926;0.186916;0.785870071;0.617702021;0.148242;-0;4.63074;-0.0403979;0.0413989;0;0;0;0;0;0;0;0;0;0;1.59375;1.98438;1.03125;0;1.74;2.04;1.9;0;0;0
15292;-5100;-32574;12610;-6518;-31870;1573221656206901;0.186916;0.785870071;0.617702021;0.148242;-0;4.63074;-0.0403979;0.0413989;0;0;0;0;0;0;0;0;0;0;1.59375;1.98438;1.03125;0;1.74;2.04;1.9;0;0;0
15238;-5122;-32542;12646;-6528;-31918;1573221656226911;0.186916;0.785870071;0.617702021;0.148242;-0;4.63074;-0.0403979;0.0413989;0;0;0;0;0;0;0;0;0;0;1.59375;1.98438;1.03125;0;1.74;2.04;1.9;0;0;0
15240;-5138;-32566;12574;-6542;-31974;1573221656246907;0.186916;0.785870071;0.617702021;0.148242;-0;4.63074;-0.0403979;0.0413989;0;0;0;0;0;0;0;0;0;0;1.59375;1.98438;1.03125;0;1.74;2.04;1.9;0;0;0
15294;-5148;-32644;12624;-6536;-31920;1573221656266911;0.186916;0.785870071;0.617702021;0.148242;-0;4.63074;-0.0403979;0.0413989;0;0;0;0;0;0;0;0;0;0;1.59375;1.98438;1.03125;0;1.74;2.04;1.9;0;0;0
15280;-5158;-32706;12604;-6528;-31876;1573221656286911;0.186916;0.785870071;0.617702021;0.148242;-0;4.63074;-0.0403979;0.0413989;0;0;0;0;0;0;0;0;0;0;1.59375;1.98438;1.03125;0;1.74;2.04;1.9;0;0;0
15262;-5124;-32690;12628;-6532;-31828;1573221656306903;0.186916;0.785870071;0.617702021;0.148242;-0;4.63074;-0.0403979;0.0413989;0;0;0;0;0;0;0;0;0;0;1.59375;1.98438;1.03125;0;1.74;2.04;1.9;0;0;0
15252;-5136;-32658;12584;-6526;-31904;1573221656326906;0.186916;0.785870071;0.617702021;0.148242;-0;4.63074;-0.0403979;0.0413989;0;0;0;0;0;0;0;0;0;0;1.59375;1.98438;1.03125;0;1.74;2.04;1.9;0;0;0
15246;-5156;-32552;12638;-6512;-31854;1573221656346920;0.186916;0.785870071;0.617702021;0.148242;-0;4.63074;-0.0403979;0.0413989;0;0;0;0;0;0;0;0;0;0;1.59375;1.98438;1.03125;0;1.74;2.04;1.9;0;0;0
15294;-5178;-32608;12584;-6546;-31948;1573221656366898;0.186916;0.785870071;0.617702021;0.148242;-0;4.63074;-0.0403979;0.0413989;0;0;0;0;0;0;0;0;0;0;1.59375;1.98438;1.03125;0;1.74;2.04;1.9;0;0;0
15270;-5142;-32602;12640;-6538;-31844;1573221656386900;0.186916;0.785870071;0.617702021;0.148242;-0;4.63067;-0.0418314;0.0404479;0;0;0;0;0;0;0;0;0;0;1.59375;1.98438;1.03125;0;1.74;2.04;1.9;0;0;0
15206;-5164;-32652;12588;-6530;-31872;1573221656406916;0.186916;0.785870071;0.617702021;0.148242;-0;4.63067;-0.0418314;0.0404479;0;0;0;0;0;0;0;0;0;0;1.59375;1.98438;1.03125;0;1.74;2.04;1.9;0;0;0
15212;-5130;-32624;12618;-6510;-31830;1573221656426919;0.186916;0.785870071;0.617702021;0.148242;-0;4.63067;-0.0418314;0.0404479;0;0;0;0;0;0;0;0;0;0;1.59375;1.98438;1.03125;0;1.74;2.04;1.9;0;0;0
15256;-5162;-32640;12598;-6550;-31852;1573221656446910;0.186916;0.785870071;0.617702021;0.148242;-0;4.63067;-0.0418314;0.0404479;0;0;0;0;0;0;0;0;0;0;1.59375;1.98438;1.03125;0;1.74;2.04;1.9;0;0;0
15250;-5142;-32684;12598;-6564;-31892;1573221656466904;0.186916;0.785870071;0.617702021;0.148242;-0;4.63067;-0.0418314;0.0404479;0;0;0;0;0;0;0;0;0;0;1.59375;1.98438;1.03125;0;1.71;2.04;1.96;0;0;0
15252;-5166;-32598;12594;-6516;-31950;1573221656486905;0.186916;0.785870071;0.617702021;0.148242;-0;4.63067;-0.0418314;0.0404479;0;0;0;0;0;0;0;0;0;0;1.59375;1.98438;1.03125;0;1.71;2.04;1.96;0;0;0
15194;-5142;-32566;12610;-6492;-31946;1573221656506906;0.186916;0.785870071;0.617702021;0.148242;-0;4.63067;-0.0418314;0.0404479;0;0;0;0;0;0;0;0;0;0;1.59375;1.98438;1.03125;0;1.71;2.04;1.96;0;0;0
15222;-5138;-32590;12610;-6504;-31964;1573221656526912;0.186916;0.785870071;0.617702021;0.148242;-0;4.63067;-0.0418314;0.0404479;0;0;0;0;0;0;0;0;0;0;1.59375;1.98438;1.03125;0;1.71;2.04;1.96;0;0;0
15266;-5124;-32596;12550;-6514;-31940;1573221656546894;0.186916;0.785870071;0.617702021;0.148242;-0;4.63067;-0.0418314;0.0404479;0;0;0;0;0;0;0;0;0;0;1.59375;1.98438;1.03125;0;1.71;2.04;1.96;0;0;0
15276;-5142;-32626;12608;-6472;-31930;1573221656566905;0.186916;0.785870071;0.617702021;0.148242;-0;4.63067;-0.0418314;0.0404479;0;0;0;0;0;0;0;0;0;0;1.59375;1.98438;1.03125;0;1.71;2.04;1.96;0;0;0
15222;-5120;-32668;12546;-6510;-31922;1573221656586919;0.186916;0.785870071;0.617702021;0.148242;-0;4.63067;-0.0418314;0.0404479;0;0;0;0;0;0;0;0;0;0;1.59375;1.98438;1.03125;0;1.71;2.04;1.96;0;0;0
15196;-5098;-32716;12548;-6462;-31916;1573221656606906;0.186916;0.785870071;0.617702021;0.175959;-0;4.63067;-0.0431413;0.039207;0;0;0;0;0;0;0;0;0;0;1.59375;1.98438;1.03125;0;1.71;2.04;1.96;0;0;0
15230;-5108;-32704;12598;-6478;-31882;1573221656626894;0.186916;0.785870071;0.617702021;0.175959;-0;4.63067;-0.0431413;0.039207;0;0;0;0;0;0;0;0;0;0;1.59375;1.98438;1.03125;0;1.71;2.04;1.96;0;0;0
15250;-5108;-32736;12590;-6432;-31854;1573221656646897;0.186916;0.785870071;0.617702021;0.175959;-0;4.63067;-0.0431413;0.039207;0;0;0;0;0;0;0;0;0;0;1.59375;1.98438;1.03125;0;1.71;2.04;1.96;0;0;0
15222;-5096;-32554;12576;-6504;-31866;1573221656666888;0.186916;0.785870071;0.617702021;0.175959;-0;4.63067;-0.0431413;0.039207;0;0;0;0;0;0;0;0;0;0;1.59375;1.98438;1.03125;0;1.71;2.04;1.96;0;0;0
15242;-5060;-32574;12546;-6454;-31878;1573221656686896;0.186916;0.785870071;0.617702021;0.175959;-0;4.63067;-0.0431413;0.039207;0;0;0;0;0;0;0;0;0;0;1.59375;1.98438;1.03125;0;1.71;2.04;1.96;0;0;0
15206;-5058;-32600;12604;-6418;-31870;1573221656706885;0.186916;0.785870071;0.617702021;0.175959;-0;4.63067;-0.0431413;0.039207;0;0;0;0;0;0;0;0;0;0;1.59375;1.98438;1.03125;0;1.71;2.04;1.96;0;0;0
15176;-5038;-32634;12530;-6430;-31904;1573221656726904;0.186916;0.785870071;0.617702021;0.175959;-0;4.63067;-0.0431413;0.039207;0;0;0;0;0;0;0;0;0;0;1.59375;1.98438;1.03125;0;1.71;2.04;1.96;0;0;0
15178;-5060;-32656;12590;-6412;-31916;1573221656746906;0.186916;0.785870071;0.617702021;0.175959;-0;4.63067;-0.0431413;0.039207;0;0;0;0;0;0;0;0;0;0;1.59375;1.98438;1.03125;0;1.71;2.04;1.96;0;0;0
15258;-5024;-32640;12558;-6406;-31988;1573221656766919;0.186916;0.785870071;0.617702021;0.175959;-0;4.63067;-0.0431413;0.039207;0;0;0;0;0;0;0;0;0;0;1.59375;1.98438;1.03125;0;1.71;2.04;1.96;0;0;0
15202;-5004;-32662;12586;-6360;-32014;1573221656786900;0.186916;0.785870071;0.617702021;0.175959;-0;4.63067;-0.0431413;0.039207;0;0;0;0;0;0;0;0;0;0;1.59375;1.98438;1.03125;0;1.71;2.04;1.96;0;0;0
15234;-4992;-32710;12518;-6410;-31988;1573221656806894;0.186916;0.785870104;0.617702018;0.175959;-0;4.63067;-0.0431413;0.039207;0;0;0;0;0;0;0;0;0;0;1.59375;1.98438;1.03125;0;1.71;2.04;1.96;0;0;0
15212;-5004;-32680;12590;-6366;-31920;1573221656826911;0.186916;0.785870104;0.617702018;0.177541;-0;4.63074;-0.0438788;0.0379065;0;0;0;0;0;0;0;0;0;0;1.59375;1.98438;1.03125;0;1.71;2.04;1.96;0;0;0
15152;-5000;-32666;12546;-6338;-31886;1573221656846924;0.186916;0.785870104;0.617702018;0.177541;-0;4.63074;-0.0438788;0.0379065;0;0;0;0;0;0;0;0;0;0;1.59375;1.98438;1.03125;0;1.71;2.04;1.96;0;0;0
15182;-4972;-32636;12584;-6306;-31918;1573221656866926;0.186916;0.785870104;0.617702018;0.177541;-0;4.63074;-0.0438788;0.0379065;0;0;0;0;0;0;0;0;0;0;1.59375;1.98438;1.03125;0;1.71;2.04;1.96;0;0;0
15134;-4968;-32634;12534;-6342;-31916;1573221656886915;0.186916;0.785870104;0.617702018;0.177541;-0;4.63074;-0.0438788;0.0379065;0;0;0;0;0;0;0;0;0;0;1.59375;1.98438;1.03125;0;1.71;2.04;1.96;0;0;0
15192;-4948;-32622;12558;-6334;-31942;1573221656906905;0.186916;0.785870104;0.617702018;0.177541;-0;4.63074;-0.0438788;0.0379065;0;0;0;0;0;0;0;0;0;0;1.59375;1.98438;1.03125;0;1.71;2.04;1.96;0;0;0
15188;-4946;-32594;12536;-6304;-32010;1573221656926902;0.186916;0.785870104;0.617702018;0.177541;-0;4.63074;-0.0438788;0.0379065;0;0;0;0;0;0;0;0;0;0;1.59375;1.98438;1.03125;0;1.71;2.04;1.96;0;0;0
15186;-4916;-32626;12586;-6314;-32038;1573221656946952;0.186916;0.785870104;0.617702018;0.177541;-0;4.63074;-0.0438788;0.0379065;0;0;0;0;0;0;0;0;0;0;1.59375;1.98438;1.03125;0;1.71;2.04;1.96;0;0;0
15148;-4918;-32662;12526;-6274;-31996;1573221656966935;0.186916;0.785870104;0.617702018;0.177541;-0;4.63074;-0.0438788;0.0379065;0;0;0;0;0;0;0;0;0;0;1.59375;1.98438;1.03125;0;1.71;2.04;1.96;0;0;0
15116;-4900;-32650;12556;-6250;-31896;1573221656986907;0.186916;0.785870104;0.617702018;0.177541;-0;4.63074;-0.0438788;0.0379065;0;0;0;0;0;0;0;0;0;0;1.59375;1.98438;1.03125;0;1.71;2.04;1.96;0;0;0
15164;-4900;-32676;12528;-6236;-31918;1573221657006917;0.186916;0.785870104;0.617702018;0.177541;-0;4.63074;-0.0438788;0.0379065;0;0;0;0;0;0;0;0;0;0;1.59375;1.98438;1.03125;0;1.71;2.04;1.96;0;0;0
15150;-4858;-32640;12540;-6290;-32002;1573221657026904;0.186916;0.785870104;0.617702018;0.196653;-0;4.63031;-0.0440674;0.0371471;0;0;0;0;0;0;0;0;0;0;1.59375;1.98438;1.03125;0;1.71;2.04;1.96;0;0;0
15166;-4884;-32660;12592;-6208;-32022;1573221657046885;0.186916;0.785870104;0.617702018;0.196653;-0;4.63031;-0.0440674;0.0371471;0;0;0;0;0;0;0;0;0;0;1.59375;1.98438;1.03125;0;1.71;2.04;1.96;0;0;0
15190;-4850;-32658;12532;-6186;-31964;1573221657066900;0.186916;0.785870104;0.617702018;0.196653;-0;4.63031;-0.0440674;0.0371471;0;0;0;0;0;0;0;0;0;0;1.59375;1.98438;1.03125;0;1.71;2.04;1.96;0;0;0
15120;-4858;-32676;12568;-6216;-31912;1573221657086901;0.186916;0.785870104;0.617702018;0.196653;-0;4.63031;-0.0440674;0.0371471;0;0;0;0;0;0;0;0;0;0;1.59375;1.98438;1.03125;0;1.71;2.04;1.96;0;0;0
15124;-4810;-32670;12524;-6212;-31968;1573221657106967;0.186916;0.785870104;0.617702018;0.196653;-0;4.63031;-0.0440674;0.0371471;0;0;0;0;0;0;0;0;0;0;1.59375;1.98438;1.03125;0;1.71;2.04;1.96;0;0;0
15118;-4836;-32788;12592;-6212;-32018;1573221657126899;0.186916;0.785870104;0.617702018;0.196653;-0;4.63031;-0.0440674;0.0371471;0;0;0;0;0;0;0;0;0;0;1.59375;1.98438;1.03125;0;1.71;2.04;1.96;0;0;0
15168;-4822;-32758;12520;-6152;-32066;1573221657146908;0.186916;0.785870104;0.617702018;0.196653;-0;4.63031;-0.0440674;0.0371471;0;0;0;0;0;0;0;0;0;0;1.59375;1.98438;1.03125;0;1.71;2.04;1.96;0;0;0
15150;-4800;-32756;12538;-6186;-32038;1573221657166894;0.186916;0.785870104;0.617702018;0.196653;-0;4.63031;-0.0440674;0.0371471;0;0;0;0;0;0;0;0;0;0;1.59375;1.98438;1.03125;0;1.71;2.04;1.96;0;0;0
15148;-4788;-32774;12548;-6130;-31950;1573221657186907;0.186916;0.785870104;0.617702018;0.196653;-0;4.63031;-0.0440674;0.0371471;0;0;0;0;0;0;0;0;0;0;1.59375;1.98438;1.03125;0;1.71;2.04;1.96;0;0;0
15168;-4786;-32728;12556;-6140;-31956;1573221657206916;0.186916;0.785870104;0.617702018;0.196653;-0;4.63031;-0.0440674;0.0371471;0;0;0;0;0;0;0;0;0;0;1.59375;1.98438;1.03125;0;1.71;2.04;1.96;0;0;0
15140;-4780;-32676;12514;-6110;-32014;1573221657226913;0.186916;0.785870104;0.617702018;0.196653;-0;4.63031;-0.0440674;0.0371471;0;0;0;0;0;0;0;0;0;0;1.59375;1.98438;1.03125;0;1.71;2.04;1.96;0;0;0
15148;-4756;-32656;12540;-6140;-32038;1573221657246905;0.186916;0.785870104;0.617702018;0.196653;-0;4.62994;-0.0438613;0.0378609;0;0;0;0;0;0;0;0;0;0;1.59375;1.98438;1.03125;0;1.71;2.04;1.96;0;0;0
15090;-4742;-32682;12508;-6156;-31980;1573221657266899;0.186916;0.785870104;0.617702018;0.196653;-0;4.62994;-0.0438613;0.0378609;0;0;0;0;0;0;0;0;0;0;1.59375;1.98438;1.03125;0;1.71;2.04;1.96;0;0;0
15118;-4750;-32644;12550;-6118;-31936;1573221657286905;0.186916;0.785870104;0.617702018;0.196653;-0;4.62994;-0.0438613;0.0378609;0;0;0;0;0;0;0;0;0;0;1.59375;1.98438;1.03125;0;1.71;2.04;1.96;0;0;0
15174;-4758;-32696;12546;-6092;-31936;1573221657306894;0.186916;0.785870104;0.617702018;0.196653;-0;4.62994;-0.0438613;0.0378609;0;0;0;0;0;0;0;0;0;0;1.59375;1.98438;1.03125;0;1.71;2.04;1.96;0;0;0
15160;-4728;-32694;12610;-6100;-31976;1573221657326906;0.186916;0.785870104;0.617702018;0.196653;-0;4.62994;-0.0438613;0.0378609;0;0;0;0;0;0;0;0;0;0;1.59375;1.98438;1.03125;0;1.71;2.04;1.96;0;0;0
15104;-4718;-32746;12526;-6108;-31946;1573221657346913;0.186916;0.785870104;0.617702018;0.196653;-0;4.62994;-0.0438613;0.0378609;0;0;0;0;0;0;0;0;0;0;1.59375;1.98438;1.03125;0;1.71;2.04;1.96;0;0;0
15138;-4702;-32690;12572;-6086;-32060;1573221657366907;0.186916;0.785870104;0.617702018;0.196653;-0;4.62994;-0.0438613;0.0378609;0;0;0;0;0;0;0;0;0;0;1.59375;1.98438;1.03125;0;1.71;2.04;1.96;0;0;0
15138;-4742;-32740;12526;-6042;-32084;1573221657386904;0.186916;0.785870104;0.617702018;0.196653;-0;4.62994;-0.0438613;0.0378609;0;0;0;0;0;0;0;0;0;0;1.59375;1.98438;1.03125;0;1.71;2.04;1.96;0;0;0
15114;-4702;-32686;12540;-6014;-32034;1573221657406885;0.186916;0.785870104;0.617702018;0.196653;-0;4.62994;-0.0438613;0.0378609;0;0;0;0;0;0;0;0;0;0;1.59375;1.98438;1.03125;0;1.71;2.04;1.96;0;0;0
15130;-4664;-32684;12530;-6052;-31978;1573221657426902;0.186916;0.785870104;0.617702018;0.196653;-0;4.62994;-0.0438613;0.0378609;0;0;0;0;0;0;0;0;0;0;1.59375;1.98438;1.03125;0;1.71;2.04;1.96;0;0;0
15092;-4674;-32670;12588;-6074;-31942;1573221657446898;0.186916;0.785870104;0.617702018;0.196653;-0;4.62961;-0.0432733;0.0392328;0;0;0;0;0;0;0;0;0;0;1.59375;1.98438;1.03125;0;1.71;2.04;1.96;0;0;0
15078;-4698;-32654;12526;-6122;-31976;1573221657466897;0.186916;0.785870104;0.617702018;0.196653;-0;4.62961;-0.0432733;0.0392328;0;0;0;0;0;0;0;0;0;0;1.59375;1.98438;1.03125;0;1.71;2.04;1.96;0;0;0
15152;-4676;-32698;12580;-6022;-31978;1573221657486917;0.186916;0.785870104;0.617702018;0.196653;-0;4.62961;-0.0432733;0.0392328;0;0;0;0;0;0;0;0;0;0;1.32812;1.92969;1.03125;0;1.74;2.04;1.93;0;0;0
15150;-4658;-32696;12562;-6000;-32036;1573221657506895;0.186916;0.785870104;0.617702018;0.196653;-0;4.62961;-0.0432733;0.0392328;0;0;0;0;0;0;0;0;0;0;1.32812;1.92969;1.03125;0;1.74;2.04;1.93;0;0;0
15146;-4636;-32720;12590;-6020;-32098;1573221657526910;0.186916;0.785870104;0.617702018;0.196653;-0;4.62961;-0.0432733;0.0392328;0;0;0;0;0;0;0;0;0;0;1.32812;1.92969;1.03125;0;1.74;2.04;1.93;0;0;0
15134;-4646;-32754;12524;-6000;-32078;1573221657546890;0.186916;0.785870104;0.617702018;0.196653;-0;4.62961;-0.0432733;0.0392328;0;0;0;0;0;0;0;0;0;0;1.32812;1.92969;1.03125;0;1.74;2.04;1.93;0;0;0
15110;-4646;-32778;12574;-6012;-32046;1573221657566911;0.186916;0.785870104;0.617702018;0.196653;-0;4.62961;-0.0432733;0.0392328;0;0;0;0;0;0;0;0;0;0;1.32812;1.92969;1.03125;0;1.74;2.04;1.93;0;0;0
15166;-4632;-32702;12574;-6014;-31978;1573221657586917;0.186916;0.785870104;0.617702018;0.196653;-0;4.62961;-0.0432733;0.0392328;0;0;0;0;0;0;0;0;0;0;1.32812;1.92969;1.03125;0;1.74;2.04;1.93;0;0;0
15160;-4654;-32708;12636;-6010;-31960;1573221657606981;0.186916;0.785870104;0.617702018;0.196653;-0;4.62961;-0.0432733;0.0392328;0;0;0;0;0;0;0;0;0;0;1.32812;1.92969;1.03125;0;1.74;2.04;1.93;0;0;0
15108;-4614;-32778;12580;-5968;-31984;1573221657626910;0.186916;0.785870104;0.617702018;0.196653;-0;4.62961;-0.0432733;0.0392328;0;0;0;0;0;0;0;0;0;0;1.32812;1.92969;1.03125;0;1.74;2.04;1.93;0;0;0
15134;-4588;-32778;12584;-5984;-32040;1573221657646894;0.186916;0.785870104;0.617702018;0.196653;-0;4.62968;-0.0425964;0.0410586;0;0;0;0;0;0;0;0;0;0;1.32812;1.92969;1.03125;0;1.74;2.04;1.93;0;0;0
15172;-4596;-32816;12592;-5980;-32084;1573221657666904;0.186916;0.785870104;0.617702018;0.196653;-0;4.62968;-0.0425964;0.0410586;0;0;0;0;0;0;0;0;0;0;1.32812;1.92969;1.03125;0;1.74;2.04;1.93;0;0;0
15132;-4588;-32812;12592;-5992;-32100;1573221657686909;0.186916;0.785870104;0.617702018;0.196653;-0;4.62968;-0.0425964;0.0410586;0;0;0;0;0;0;0;0;0;0;1.32812;1.92969;1.03125;0;1.74;2.04;1.93;0;0;0
15134;-4596;-32716;12600;-5976;-32012;1573221657706906;0.186916;0.785870104;0.617702018;0.196653;-0;4.62968;-0.0425964;0.0410586;0;0;0;0;0;0;0;0;0;0;1.32812;1.92969;1.03125;0;1.74;2.04;1.93;0;0;0
15104;-4558;-32744;12644;-5950;-31948;1573221657726922;0.186916;0.785870104;0.617702018;0.196653;-0;4.62968;-0.0425964;0.0410586;0;0;0;0;0;0;0;0;0;0;1.32812;1.92969;1.03125;0;1.74;2.04;1.93;0;0;0
15198;-4560;-32740;12602;-5950;-31994;1573221657745902;0.186916;0.785870104;0.617702018;0.196653;-0;4.62968;-0.0425964;0.0410586;0;0;0;0;0;0;0;0;0;0;1.32812;1.92969;1.03125;0;1.74;2.04;1.93;0;0;0
15136;-4564;-32708;12642;-5908;-32068;1573221657765896;0.186916;0.785870104;0.617702018;0.196653;-0;4.62968;-0.0425964;0.0410586;0;0;0;0;0;0;0;0;0;0;1.32812;1.92969;1.03125;0;1.74;2.04;1.93;0;0;0
15182;-4572;-32754;12624;-5906;-32066;1573221657785870;0.186916;0.785870104;0.617702018;0.196653;-0;4.62968;-0.0425964;0.0410586;0;0;0;0;0;0;0;0;0;0;1.32812;1.92969;1.03125;0;1.74;2.04;1.93;0;0;0
15146;-4548;-32776;12610;-5974;-32024;1573221657805906;0.186916;0.785870104;0.617702018;0.196653;-0;4.62968;-0.0425964;0.0410586;0;0;0;0;0;0;0;0;0;0;1.32812;1.92969;1.03125;0;1.74;2.04;1.93;0;0;0
15140;-4544;-32824;12674;-5912;-31944;1573221657825904;0.186916;0.785870104;0.617702018;0.196653;-0;4.62968;-0.0425964;0.0410586;0;0;0;0;0;0;0;0;0;0;1.32812;1.92969;1.03125;0;1.74;2.04;1.93;0;0;0
15134;-4504;-32856;12618;-5852;-31952;1573221657845900;0.186916;0.785870104;0.617702018;0.196653;-0;4.62968;-0.0425964;0.0410586;0;0;0;0;0;0;0;0;0;0;1.32812;1.92969;1.03125;0;1.74;2.04;1.93;0;0;0
15208;-4554;-32824;12652;-5884;-32036;1573221657865906;0.186916;0.785870104;0.617702018;0.196653;-0;4.62968;-0.0425964;0.0410586;0;0;0;0;0;0;0;0;0;0;1.32812;1.92969;1.03125;0;1.74;2.04;1.93;0;0;0
15180;-4504;-32800;12634;-5860;-32076;1573221657885904;0.186916;0.785870138;0.617702009;0.177541;-0;4.63013;-0.0417264;0.0430637;0;0;0;0;0;0;0;0;0;0;1.32812;1.92969;1.03125;0;1.74;2.04;1.93;0;0;0
15168;-4472;-32816;12654;-5902;-32090;1573221657905906;0.186916;0.785870138;0.617702009;0.177541;-0;4.63013;-0.0417264;0.0430637;0;0;0;0;0;0;0;0;0;0;1.32812;1.92969;1.03125;0;1.74;2.04;1.93;0;0;0
15168;-4478;-32696;12636;-5830;-32052;1573221657925900;0.186916;0.785870138;0.617702009;0.177541;-0;4.63013;-0.0417264;0.0430637;0;0;0;0;0;0;0;0;0;0;1.32812;1.92969;1.03125;0;1.74;2.04;1.93;0;0;0
15166;-4476;-32700;12670;-5888;-31948;1573221657945907;0.186916;0.785870138;0.617702009;0.177541;-0;4.63013;-0.0417264;0.0430637;0;0;0;0;0;0;0;0;0;0;1.32812;1.92969;1.03125;0;1.74;2.04;1.93;0;0;0
15196;-4478;-32690;12636;-5912;-31968;1573221657965932;0.186916;0.785870138;0.617702009;0.177541;-0;4.63013;-0.0417264;0.0430637;0;0;0;0;0;0;0;0;0;0;1.32812;1.92969;1.03125;0;1.74;2.04;1.93;0;0;0
15220;-4438;-32700;12660;-5812;-32000;1573221657985921;0.186916;0.785870138;0.617702009;0.177541;-0;4.63013;-0.0417264;0.0430637;0;0;0;0;0;0;0;0;0;0;1.32812;1.92969;1.03125;0;1.74;2.04;1.93;0;0;0
15172;-4440;-32740;12700;-5804;-32050;1573221658005886;0.186916;0.785870138;0.617702009;0.177541;-0;4.63013;-0.0417264;0.0430637;0;0;0;0;0;0;0;0;0;0;1.32812;1.92969;1.03125;0;1.74;2.04;1.93;0;0;0
15172;-4408;-32712;12666;-5792;-31972;1573221658025904;0.186916;0.785870138;0.617702009;0.177541;-0;4.63013;-0.0417264;0.0430637;0;0;0;0;0;0;0;0;0;0;1.32812;1.92969;1.03125;0;1.74;2.04;1.93;0;0;0
15166;-4426;-32764;12686;-5806;-31966;1573221658045891;0.186916;0.785870138;0.617702009;0.177541;-0;4.63013;-0.0417264;0.0430637;0;0;0;0;0;0;0;0;0;0;1.32812;1.92969;1.03125;0;1.74;2.04;1.93;0;0;0
15166;-4388;-32786;12662;-5780;-32002;1573221658065908;0.186916;0.785870138;0.617702009;0.177541;-0;4.63013;-0.0417264;0.0430637;0;0;0;0;0;0;0;0;0;0;1.32812;1.92969;1.03125;0;1.74;2.04;1.93;0;0;0
15182;-4384;-32696;12728;-5792;-32042;1573221658085900;0.186916;0.785870138;0.617702009;0.177541;-0;4.63013;-0.0417264;0.0430637;0;0;0;0;0;0;0;0;0;0;1.32812;1.92969;1.03125;0;1.74;2.04;1.93;0;0;0
15214;-4362;-32792;12688;-5778;-32052;1573221658105922;0.186916;0.785870138;0.617702009;0.202316;-0;4.63124;-0.0408611;0.0448894;0;0;0;0;0;0;0;0;0;0;1.32812;1.92969;1.03125;0;1.74;2.04;1.93;0;0;0
15230;-4392;-32736;12754;-5748;-32100;1573221658125912;0.186916;0.785870138;0.617702009;0.202316;-0;4.63124;-0.0408611;0.0448894;0;0;0;0;0;0;0;0;0;0;1.32812;1.92969;1.03125;0;1.74;2.04;1.93;0;0;0
15254;-4362;-32730;12710;-5726;-32026;1573221658145909;0.186916;0.785870138;0.617702009;0.202316;-0;4.63124;-0.0408611;0.0448894;0;0;0;0;0;0;0;0;0;0;1.32812;1.92969;1.03125;0;1.74;2.04;1.93;0;0;0
15228;-4352;-32756;12696;-5714;-31970;1573221658165896;0.186916;0.785870138;0.617702009;0.202316;-0;4.63124;-0.0408611;0.0448894;0;0;0;0;0;0;0;0;0;0;1.32812;1.92969;1.03125;0;1.74;2.04;1.93;0;0;0
15208;-4344;-32722;12706;-5708;-31970;1573221658185901;0.186916;0.785870138;0.617702009;0.202316;-0;4.63124;-0.0408611;0.0448894;0;0;0;0;0;0;0;0;0;0;1.32812;1.92969;1.03125;0;1.74;2.04;1.93;0;0;0
15206;-4284;-32768;12792;-5732;-32080;1573221658205913;0.186916;0.785870138;0.617702009;0.202316;-0;4.63124;-0.0408611;0.0448894;0;0;0;0;0;0;0;0;0;0;1.32812;1.92969;1.03125;0;1.74;2.04;1.93;0;0;0
15194;-4274;-32692;12740;-5686;-32072;1573221658225918;0.186916;0.785870138;0.617702009;0.202316;-0;4.63124;-0.0408611;0.0448894;0;0;0;0;0;0;0;0;0;0;1.32812;1.92969;1.03125;0;1.74;2.04;1.93;0;0;0
15240;-4258;-32670;12732;-5646;-32018;1573221658245906;0.186916;0.785870138;0.617702009;0.202316;-0;4.63124;-0.0408611;0.0448894;0;0;0;0;0;0;0;0;0;0;1.32812;1.92969;1.03125;0;1.74;2.04;1.93;0;0;0
15258;-4276;-32692;12744;-5642;-31966;1573221658265897;0.186916;0.785870138;0.617702009;0.202316;-0;4.63124;-0.0408611;0.0448894;0;0;0;0;0;0;0;0;0;0;1.32812;1.92969;1.03125;0;1.74;2.04;1.93;0;0;0
15274;-4246;-32716;12756;-5640;-31996;1573221658285916;0.186916;0.785870138;0.617702009;0.202316;-0;4.63124;-0.0408611;0.0448894;0;0;0;0;0;0;0;0;0;0;1.32812;1.92969;1.03125;0;1.74;2.04;1.93;0;0;0
15240;-4236;-32722;12792;-5568;-32058;1573221658305906;0.186916;0.785870138;0.617702009;0.195546;-0;4.63235;-0.0403004;0.0467377;0;0;0;0;0;0;0;0;0;0;1.32812;1.92969;1.03125;0;1.74;2.04;1.93;0;0;0
15228;-4208;-32764;12722;-5608;-32116;1573221658325901;0.186916;0.785870138;0.617702009;0.195546;-0;4.63235;-0.0403004;0.0467377;0;0;0;0;0;0;0;0;0;0;1.32812;1.92969;1.03125;0;1.74;2.04;1.93;0;0;0
15266;-4200;-32772;12802;-5602;-32076;1573221658345903;0.186916;0.785870138;0.617702009;0.195546;-0;4.63235;-0.0403004;0.0467377;0;0;0;0;0;0;0;0;0;0;1.32812;1.92969;1.03125;0;1.74;2.04;1.93;0;0;0
15242;-4200;-32770;12734;-5592;-32038;1573221658365927;0.186916;0.785870138;0.617702009;0.195546;-0;4.63235;-0.0403004;0.0467377;0;0;0;0;0;0;0;0;0;0;1.32812;1.92969;1.03125;0;1.74;2.04;1.93;0;0;0
15258;-4152;-32696;12804;-5560;-31990;1573221658385893;0.186916;0.785870138;0.617702009;0.195546;-0;4.63235;-0.0403004;0.0467377;0;0;0;0;0;0;0;0;0;0;1.32812;1.92969;1.03125;0;1.74;2.04;1.93;0;0;0
15290;-4144;-32772;12748;-5526;-31984;1573221658406040;0.186916;0.785870138;0.617702009;0.195546;-0;4.63235;-0.0403004;0.0467377;0;0;0;0;0;0;0;0;0;0;1.32812;1.92969;1.03125;0;1.74;2.04;1.93;0;0;0
15236;-4122;-32678;12826;-5518;-32084;1573221658425911;0.186916;0.785870138;0.617702009;0.195546;-0;4.63235;-0.0403004;0.0467377;0;0;0;0;0;0;0;0;0;0;1.32812;1.92969;1.03125;0;1.74;2.04;1.93;0;0;0
15212;-4132;-32760;12762;-5542;-32124;1573221658445922;0.186916;0.785870138;0.617702009;0.195546;-0;4.63235;-0.0403004;0.0467377;0;0;0;0;0;0;0;0;0;0;1.32812;1.92969;1.03125;0;1.74;2.04;1.93;0;0;0
15296;-4114;-32798;12810;-5558;-32056;1573221658465889;0.186916;0.785870138;0.617702009;0.195546;-0;4.63235;-0.0403004;0.0467377;0;0;0;0;0;0;0;0;0;0;1.32812;1.92969;1.03125;0;1.74;2.04;1.93;0;0;0
15246;-4084;-32840;12790;-5506;-32018;1573221658485876;0.186916;0.785870138;0.617702009;0.195546;-0;4.63235;-0.0403004;0.0467377;0;0;0;0;0;0;0;0;0;0;1.32812;1.92969;1.03125;0;1.74;2.04;1.93;0;0;0
15222;-4052;-32668;12840;-5476;-31994;1573221658505902;0.186916;0.785870138;0.617702009;0.195546;-0;4.63235;-0.0403004;0.0467377;0;0;0;0;0;0;0;0;0;0;1.32812;1.92969;1.03125;0;1.74;2.04;1.93;0;0;0
15286;-4062;-32768;12790;-5452;-32000;1573221658525899;0.186916;0.785870138;0.617702009;0.195546;-0;4.63235;-0.0403004;0.0467377;0;0;0;0;0;0;0;0;0;0;1.32812;1.92969;1.03125;0;1.74;2.04;1.93;0;0;0
15262;-4048;-32830;12772;-5440;-32128;1573221658545905;0.186916;0.785870138;0.617702009;0.195546;-0;4.63235;-0.0403004;0.0467377;0;0;0;0;0;0;0;0;0;0;1.32812;1.92969;1.03125;0;1.74;2.04;1.93;0;0;0
15232;-4038;-32842;12788;-5390;-32046;1573221658565903;0.186916;0.785870138;0.617702009;0.195546;-0;4.63235;-0.0403004;0.0467377;0;0;0;0;0;0;0;0;0;0;1.32812;1.92969;1.03125;0;1.74;2.04;1.93;0;0;0
15272;-3998;-32768;12862;-5424;-31996;1573221658585902;0.186916;0.785870138;0.617702009;0.195546;-0;4.63235;-0.0403004;0.0467377;0;0;0;0;0;0;0;0;0;0;1.32812;1.92969;1.03125;0;1.74;2.04;1.93;0;0;0
15226;-3974;-32728;12816;-5356;-32072;1573221658605940;0.186916;0.785870138;0.617702009;0.195546;-0;4.6333;-0.0402203;0.049563;0;0;0;0;0;0;0;0;0;0;1.32812;1.92969;1.03125;0;1.74;2.04;1.93;0;0;0
15218;-3974;-32780;12830;-5334;-32144;1573221658625894;0.186916;0.785870138;0.617702009;0.195546;-0;4.6333;-0.0402203;0.049563;0;0;0;0;0;0;0;0;0;0;1.32812;1.92969;1.03125;0;1.74;2.04;1.93;0;0;0
15264;-3952;-32772;12836;-5356;-32038;1573221658645899;0.186916;0.785870138;0.617702009;0.195546;-0;4.6333;-0.0402203;0.049563;0;0;0;0;0;0;0;0;0;0;1.32812;1.92969;0.960938;0;1.71;2.07;1.96;0;0;0
15266;-3948;-32804;12794;-5344;-32002;1573221658665938;0.186916;0.785870138;0.617702009;0.195546;-0;4.6333;-0.0402203;0.049563;0;0;0;0;0;0;0;0;0;0;1.32812;1.92969;0.960938;0;1.71;2.07;1.96;0;0;0
15264;-3928;-32822;12858;-5382;-32008;1573221658685910;0.186916;0.785870138;0.617702009;0.195546;-0;4.6333;-0.0402203;0.049563;0;0;0;0;0;0;0;0;0;0;1.32812;1.92969;0.960938;0;1.71;2.07;1.96;0;0;0
15222;-3916;-32860;12800;-5298;-32048;1573221658705919;0.186916;0.785870138;0.617702009;0.195546;-0;4.6333;-0.0402203;0.049563;0;0;0;0;0;0;0;0;0;0;1.32812;1.92969;0.960938;0;1.71;2.07;1.96;0;0;0
15246;-3892;-32856;12844;-5340;-32122;1573221658725901;0.186916;0.785870138;0.617702009;0.195546;-0;4.6333;-0.0402203;0.049563;0;0;0;0;0;0;0;0;0;0;1.32812;1.92969;0.960938;0;1.71;2.07;1.96;0;0;0
15240;-3894;-32826;12800;-5290;-32070;1573221658745891;0.186916;0.785870138;0.617702009;0.195546;-0;4.6333;-0.0402203;0.049563;0;0;0;0;0;0;0;0;0;0;1.32812;1.92969;0.960938;0;1.71;2.07;1.96;0;0;0
15246;-3878;-32878;12790;-5272;-32022;1573221658765889;0.186916;0.785870138;0.617702009;0.195546;-0;4.6333;-0.0402203;0.049563;0;0;0;0;0;0;0;0;0;0;1.32812;1.92969;0.960938;0;1.71;2.07;1.96;0;0;0
15220;-3866;-32752;12796;-5282;-32012;1573221658785937;0.186916;0.785870138;0.617702009;0.195546;-0;4.6333;-0.0402203;0.049563;0;0;0;0;0;0;0;0;0;0;1.32812;1.92969;0.960938;0;1.71;2.07;1.96;0;0;0
15188;-3840;-32790;12816;-5246;-32094;1573221658805901;0.186916;0.785870138;0.617702009;0.195546;-0;4.6333;-0.0402203;0.049563;0;0;0;0;0;0;0;0;0;0;1.32812;1.92969;0.960938;0;1.71;2.07;1.96;0;0;0
15264;-3832;-32740;12836;-5216;-32166;1573221658825916;0.186916;0.785870138;0.617702009;0.195546;-0;4.6333;-0.0402203;0.049563;0;0;0;0;0;0;0;0;0;0;1.32812;1.92969;0.960938;0;1.71;2.07;1.96;0;0;0
15242;-3842;-32728;12794;-5188;-32156;1573221658845898;0.186916;0.785870138;0.617702009;0.162012;-0;4.63362;-0.0405166;0.0530742;0;0;0;0;0;0;0;0;0;0;1.32812;1.92969;0.960938;0;1.71;2.07;1.96;0;0;0
15232;-3806;-32744;12786;-5214;-32078;1573221658865900;0.186916;0.785870138;0.617702009;0.162012;-0;4.63362;-0.0405166;0.0530742;0;0;0;0;0;0;0;0;0;0;1.32812;1.92969;0.960938;0;1.71;2.07;1.96;0;0;0
15216;-3796;-32718;12788;-5200;-32026;1573221658885912;0.186916;0.785870138;0.617702009;0.162012;-0;4.63362;-0.0405166;0.0530742;0;0;0;0;0;0;0;0;0;0;1.32812;1.92969;0.960938;0;1.71;2.07;1.96;0;0;0
15198;-3774;-32858;12842;-5234;-32008;1573221658905900;0.186916;0.785870138;0.617702009;0.162012;-0;4.63362;-0.0405166;0.0530742;0;0;0;0;0;0;0;0;0;0;1.32812;1.92969;0.960938;0;1.71;2.07;1.96;0;0;0
15178;-3792;-32860;12790;-5200;-32080;1573221658925921;0.186916;0.785870138;0.617702009;0.162012;-0;4.63362;-0.0405166;0.0530742;0;0;0;0;0;0;0;0;0;0;1.32812;1.92969;0.960938;0;1.71;2.07;1.96;0;0;0
15220;-3760;-32844;12770;-5188;-32176;1573221658945893;0.186916;0.785870138;0.617702009;0.162012;-0;4.63362;-0.0405166;0.0530742;0;0;0;0;0;0;0;0;0;0;1.32812;1.92969;0.960938;0;1.71;2.07;1.96;0;0;0
15222;-3754;-32856;12814;-5230;-32158;1573221658965920;0.186916;0.785870138;0.617702009;0.162012;-0;4.63362;-0.0405166;0.0530742;0;0;0;0;0;0;0;0;0;0;1.32812;1.92969;0.960938;0;1.71;2.07;1.96;0;0;0
15252;-3760;-32824;12818;-5142;-32058;1573221658985902;0.186916;0.785870138;0.617702009;0.162012;-0;4.63362;-0.0405166;0.0530742;0;0;0;0;0;0;0;0;0;0;1.32812;1.92969;0.960938;0;1.71;2.07;1.96;0;0;0
15214;-3748;-32820;12786;-5166;-32078;1573221659005909;0.186916;0.785870138;0.617702009;0.162012;-0;4.63362;-0.0405166;0.0530742;0;0;0;0;0;0;0;0;0;0;1.32812;1.92969;0.960938;0;1.71;2.07;1.96;0;0;0
15168;-3754;-32822;12784;-5116;-32180;1573221659025900;0.186916;0.785870138;0.617702009;0.162012;-0;4.63362;-0.0405166;0.0530742;0;0;0;0;0;0;0;0;0;0;1.32812;1.92969;0.960938;0;1.71;2.07;1.96;0;0;0
15158;-3754;-32792;12774;-5184;-32114;1573221659045902;0.186916;0.785870169;0.617702006;0.162012;-0;4.63362;-0.0405166;0.0530742;0;0;0;0;0;0;0;0;0;0;1.32812;1.92969;0.960938;0;1.71;2.07;1.96;0;0;0
15208;-3734;-32908;12840;-5094;-32082;1573221659065903;0.186916;0.785870169;0.617702006;0.137649;-0;4.63356;-0.0409698;0.0582099;0;0;0;0;0;0;0;0;0;0;1.32812;1.92969;0.960938;0;1.71;2.07;1.96;0;0;0
15198;-3714;-32872;12770;-5084;-32050;1573221659085895;0.186916;0.785870169;0.617702006;0.137649;-0;4.63356;-0.0409698;0.0582099;0;0;0;0;0;0;0;0;0;0;1.32812;1.92969;0.960938;0;1.71;2.07;1.96;0;0;0
15210;-3728;-32820;12762;-5120;-32072;1573221659105902;0.186916;0.785870169;0.617702006;0.137649;-0;4.63356;-0.0409698;0.0582099;0;0;0;0;0;0;0;0;0;0;1.32812;1.92969;0.960938;0;1.71;2.07;1.96;0;0;0
15114;-3706;-32842;12750;-5084;-32074;1573221659125896;0.186916;0.785870169;0.617702006;0.137649;-0;4.63356;-0.0409698;0.0582099;0;0;0;0;0;0;0;0;0;0;1.32812;1.92969;0.960938;0;1.71;2.07;1.96;0;0;0
15142;-3728;-32866;12790;-5134;-32178;1573221659145908;0.186916;0.785870169;0.617702006;0.137649;-0;4.63356;-0.0409698;0.0582099;0;0;0;0;0;0;0;0;0;0;1.32812;1.92969;0.960938;0;1.71;2.07;1.96;0;0;0
15172;-3692;-32866;12760;-5100;-32212;1573221659165922;0.186916;0.785870169;0.617702006;0.137649;-0;4.63356;-0.0409698;0.0582099;0;0;0;0;0;0;0;0;0;0;1.32812;1.92969;0.960938;0;1.71;2.07;1.96;0;0;0
15176;-3716;-32888;12752;-5192;-32198;1573221659185907;0.186916;0.785870169;0.617702006;0.137649;-0;4.63356;-0.0409698;0.0582099;0;0;0;0;0;0;0;0;0;0;1.32812;1.92969;0.960938;0;1.71;2.07;1.96;0;0;0
15204;-3690;-32890;12780;-5116;-32158;1573221659205922;0.186916;0.785870169;0.617702006;0.137649;-0;4.63356;-0.0409698;0.0582099;0;0;0;0;0;0;0;0;0;0;1.32812;1.92969;0.960938;0;1.71;2.07;1.96;0;0;0
15176;-3732;-32796;12818;-5086;-32108;1573221659225931;0.186916;0.785870169;0.617702006;0.137649;-0;4.63356;-0.0409698;0.0582099;0;0;0;0;0;0;0;0;0;0;1.32812;1.92969;0.960938;0;1.71;2.07;1.96;0;0;0
15178;-3710;-32798;12760;-5096;-32064;1573221659245911;0.186916;0.785870169;0.617702006;0.137649;-0;4.63356;-0.0409698;0.0582099;0;0;0;0;0;0;0;0;0;0;1.32812;1.92969;0.960938;0;1.71;2.07;1.96;0;0;0
15150;-3706;-32780;12774;-5104;-32090;1573221659265911;0.186916;0.785870169;0.617702006;0.137649;-0;4.63299;-0.0413313;0.0645789;0;0;0;0;0;0;0;0;0;0;1.32812;1.92969;0.960938;0;1.71;2.07;1.96;0;0;0
15102;-3688;-32768;12778;-5098;-32104;1573221659285886;0.186916;0.785870169;0.617702006;0.137649;-0;4.63299;-0.0413313;0.0645789;0;0;0;0;0;0;0;0;0;0;1.32812;1.92969;0.960938;0;1.71;2.07;1.96;0;0;0
15146;-3736;-32810;12720;-5076;-32206;1573221659305893;0.186916;0.785870169;0.617702006;0.137649;-0;4.63299;-0.0413313;0.0645789;0;0;0;0;0;0;0;0;0;0;1.32812;1.92969;0.960938;0;1.71;2.07;1.96;0;0;0
15118;-3708;-32816;12746;-5120;-32184;1573221659325900;0.186916;0.785870169;0.617702006;0.137649;-0;4.63299;-0.0413313;0.0645789;0;0;0;0;0;0;0;0;0;0;1.32812;1.92969;0.960938;0;1.71;2.07;1.96;0;0;0
15166;-3704;-32824;12794;-5106;-32160;1573221659345906;0.186916;0.785870169;0.617702006;0.137649;-0;4.63299;-0.0413313;0.0645789;0;0;0;0;0;0;0;0;0;0;1.32812;1.92969;0.960938;0;1.71;2.07;1.96;0;0;0
15164;-3696;-32830;12772;-5136;-32052;1573221659365936;0.186916;0.785870169;0.617702006;0.137649;-0;4.63299;-0.0413313;0.0645789;0;0;0;0;0;0;0;0;0;0;1.32812;1.92969;0.960938;0;1.71;2.07;1.96;0;0;0
15180;-3696;-32950;12762;-5118;-32194;1573221659385905;0.186916;0.785870169;0.617702006;0.137649;-0;4.63299;-0.0413313;0.0645789;0;0;0;0;0;0;0;0;0;0;1.32812;1.92969;0.960938;0;1.71;2.07;1.96;0;0;0
15174;-3710;-32912;12714;-5094;-32208;1573221659405905;0.186916;0.785870169;0.617702006;0.137649;-0;4.63299;-0.0413313;0.0645789;0;0;0;0;0;0;0;0;0;0;1.32812;1.92969;0.960938;0;1.71;2.07;1.96;0;0;0
15164;-3732;-32930;12764;-5108;-32142;1573221659425916;0.186916;0.785870169;0.617702006;0.137649;-0;4.63299;-0.0413313;0.0645789;0;0;0;0;0;0;0;0;0;0;1.32812;1.92969;0.960938;0;1.71;2.07;1.96;0;0;0
15138;-3714;-32890;12718;-5088;-32054;1573221659445902;0.186916;0.785870169;0.617702006;0.137649;-0;4.63299;-0.0413313;0.0645789;0;0;0;0;0;0;0;0;0;0;1.32812;1.92969;0.960938;0;1.71;2.07;1.96;0;0;0
15140;-3726;-32968;12734;-5154;-32080;1573221659465923;0.186916;0.785870169;0.617702006;0.162012;-0;4.63234;-0.0415096;0.0692812;0;0;0;0;0;0;0;0;0;0;1.32812;1.92969;0.960938;0;1.71;2.07;1.96;0;0;0
15102;-3734;-32938;12712;-5134;-32150;1573221659485903;0.186916;0.785870169;0.617702006;0.162012;-0;4.63234;-0.0415096;0.0692812;0;0;0;0;0;0;0;0;0;0;1.32812;1.92969;0.960938;0;1.71;2.07;1.96;0;0;0
15096;-3744;-32944;12756;-5116;-32192;1573221659505908;0.186916;0.785870169;0.617702006;0.162012;-0;4.63234;-0.0415096;0.0692812;0;0;0;0;0;0;0;0;0;0;1.32812;1.92969;0.960938;0;1.71;2.07;1.96;0;0;0
15098;-3750;-32938;12742;-5154;-32076;1573221659525889;0.186916;0.785870169;0.617702006;0.162012;-0;4.63234;-0.0415096;0.0692812;0;0;0;0;0;0;0;0;0;0;1.32812;1.92969;0.960938;0;1.71;2.07;1.96;0;0;0
15162;-3768;-32840;12724;-5110;-32094;1573221659545907;0.186916;0.785870169;0.617702006;0.162012;-0;4.63234;-0.0415096;0.0692812;0;0;0;0;0;0;0;0;0;0;1.32812;1.92969;0.960938;0;1.71;2.07;1.96;0;0;0
15142;-3756;-32888;12720;-5110;-32116;1573221659565900;0.186916;0.785870169;0.617702006;0.162012;-0;4.63234;-0.0415096;0.0692812;0;0;0;0;0;0;0;0;0;0;1.32812;1.92969;0.960938;0;1.71;2.07;1.96;0;0;0
15094;-3762;-32878;12740;-5160;-32188;1573221659585903;0.186916;0.785870169;0.617702006;0.162012;-0;4.63234;-0.0415096;0.0692812;0;0;0;0;0;0;0;0;0;0;1.32812;1.92969;0.960938;0;1.71;2.07;1.96;0;0;0
15104;-3774;-32884;12738;-5162;-32196;1573221659605910;0.186916;0.785870169;0.617702006;0.162012;-0;4.63234;-0.0415096;0.0692812;0;0;0;0;0;0;0;0;0;0;1.32812;1.92969;0.960938;0;1.71;2.07;1.96;0;0;0
15104;-3794;-32806;12700;-5168;-32098;1573221659625901;0.186916;0.785870169;0.617702006;0.162012;-0;4.63234;-0.0415096;0.0692812;0;0;0;0;0;0;0;0;0;0;1.32812;1.92969;0.960938;0;1.71;2.07;1.96;0;0;0
15172;-3774;-32818;12686;-5166;-32062;1573221659645904;0.186916;0.785870169;0.617702006;0.162012;-0;4.63234;-0.0415096;0.0692812;0;0;0;0;0;0;0;0;0;0;1.32812;1.92969;0.960938;0;1.71;2.07;1.96;0;0;0
15162;-3796;-32770;12744;-5144;-32106;1573221659665907;0.186916;0.785870169;0.617702006;0.162012;-0;4.63234;-0.0415096;0.0692812;0;0;0;0;0;0;0;0;0;0;1.32812;1.92969;0.960938;0;1.71;2.07;1.96;0;0;0
15056;-3790;-32800;12712;-5236;-32208;1573221659685915;0.186916;0.785870169;0.617702006;0.163455;-0;4.63189;-0.0417949;0.0720912;0;0;0;0;0;0;0;0;0;0;1.32812;1.92969;0.960938;0;1.71;2.07;1.96;0;0;0
15094;-3828;-32764;12732;-5194;-32174;1573221659705926;0.186916;0.785870169;0.617702006;0.163455;-0;4.63189;-0.0417949;0.0720912;0;0;0;0;0;0;0;0;0;0;1.32812;1.92969;0.960938;0;1.71;2.07;1.96;0;0;0
15084;-3814;-32892;12702;-5214;-32116;1573221659725882;0.186916;0.785870169;0.617702006;0.163455;-0;4.63189;-0.0417949;0.0720912;0;0;0;0;0;0;0;0;0;0;1.32812;1.92969;0.960938;0;1.71;2.07;1.96;0;0;0
15092;-3806;-32964;12688;-5230;-32048;1573221659745882;0.186916;0.785870169;0.617702006;0.163455;-0;4.63189;-0.0417949;0.0720912;0;0;0;0;0;0;0;0;0;0;1.32812;1.92969;0.960938;0;1.71;2.07;1.96;0;0;0
15132;-3798;-32928;12688;-5210;-32104;1573221659765909;0.186916;0.785870169;0.617702006;0.163455;-0;4.63189;-0.0417949;0.0720912;0;0;0;0;0;0;0;0;0;0;1.32812;1.92969;0.960938;0;1.71;2.07;1.96;0;0;0
15128;-3840;-32952;12712;-5206;-32140;1573221659785898;0.186916;0.785870169;0.617702006;0.163455;-0;4.63189;-0.0417949;0.0720912;0;0;0;0;0;0;0;0;0;0;1.32812;1.92969;0.960938;0;1.71;2.07;1.96;0;0;0
15166;-3844;-32918;12736;-5230;-32202;1573221659805896;0.186916;0.785870169;0.617702006;0.163455;-0;4.63189;-0.0417949;0.0720912;0;0;0;0;0;0;0;0;0;0;1.32812;1.92969;0.960938;0;1.71;2.07;1.96;0;0;0
15152;-3818;-32922;12658;-5246;-32140;1573221659825903;0.186916;0.785870169;0.617702006;0.163455;-0;4.63189;-0.0417949;0.0720912;0;0;0;0;0;0;0;0;0;0;1.32812;1.92969;0.960938;0;1.71;2.07;1.96;0;0;0
15102;-3830;-32880;12750;-5204;-32074;1573221659845902;0.186916;0.785870169;0.617702006;0.163455;-0;4.63189;-0.0417949;0.0720912;0;0;0;0;0;0;0;0;0;0;1.32812;1.92969;0.960938;0;1.71;2.07;1.96;0;0;0
15110;-3838;-32910;12672;-5222;-32094;1573221659865904;0.186916;0.785870169;0.617702006;0.163455;-0;4.63189;-0.0417949;0.0720912;0;0;0;0;0;0;0;0;0;0;1.32812;1.92969;0.960938;0;1.71;2.07;1.96;0;0;0
15130;-3878;-32854;12704;-5292;-32208;1573221659885896;0.186916;0.785870169;0.617702006;0.195546;-0;4.63175;-0.0422957;0.0722173;0;0;0;0;0;0;0;0;0;0;1.32812;1.92969;0.960938;0;1.71;2.07;1.96;0;0;0
15122;-3876;-32862;12736;-5256;-32184;1573221659905909;0.186916;0.785870169;0.617702006;0.195546;-0;4.63175;-0.0422957;0.0722173;0;0;0;0;0;0;0;0;0;0;1.32812;1.92969;0.960938;0;1.71;2.07;1.96;0;0;0
15176;-3880;-32792;12684;-5244;-32060;1573221659925905;0.186916;0.785870169;0.617702006;0.195546;-0;4.63175;-0.0422957;0.0722173;0;0;0;0;0;0;0;0;0;0;1.32812;1.92969;0.960938;0;1.71;2.07;1.96;0;0;0
15158;-3878;-32802;12742;-5280;-32062;1573221659945915;0.186916;0.785870169;0.617702006;0.195546;-0;4.63175;-0.0422957;0.0722173;0;0;0;0;0;0;0;0;0;0;1.32812;1.92969;0.960938;0;1.71;2.07;1.96;0;0;0
15208;-3926;-32784;12692;-5308;-32076;1573221659965895;0.186916;0.785870169;0.617702006;0.195546;-0;4.63175;-0.0422957;0.0722173;0;0;0;0;0;0;0;0;0;0;1.32812;1.92969;0.960938;0;1.71;2.07;1.96;0;0;0
15168;-3908;-32770;12702;-5280;-32200;1573221659985906;0.186916;0.785870169;0.617702006;0.195546;-0;4.63175;-0.0422957;0.0722173;0;0;0;0;0;0;0;0;0;0;1.32812;1.92969;0.960938;0;1.71;2.07;1.96;0;0;0
15156;-3904;-32852;12676;-5310;-32192;1573221660005907;0.186916;0.785870169;0.617702006;0.195546;-0;4.63175;-0.0422957;0.0722173;0;0;0;0;0;0;0;0;0;0;1.32812;1.92969;0.960938;0;1.71;2.07;1.96;0;0;0
15110;-3908;-32820;12716;-5316;-32132;1573221660025914;0.186916;0.785870169;0.617702006;0.195546;-0;4.63175;-0.0422957;0.0722173;0;0;0;0;0;0;0;0;0;0;1.32812;1.92969;0.960938;0;1.71;2.07;1.96;0;0;0
15122;-3934;-32850;12724;-5310;-32030;1573221660045951;0.186916;0.785870169;0.617702006;0.195546;-0;4.63175;-0.0422957;0.0722173;0;0;0;0;0;0;0;0;0;0;1.32812;1.92969;0.960938;0;1.71;2.07;1.96;0;0;0
15114;-3910;-32876;12680;-5306;-32088;1573221660065945;0.186916;0.785870169;0.617702006;0.195546;-0;4.63175;-0.0422957;0.0722173;0;0;0;0;0;0;0;0;0;0;1.32812;1.92969;0.960938;0;1.71;2.04;1.93;0;0;0
15184;-3936;-32904;12724;-5318;-32184;1573221660084924;0.186916;0.785870169;0.617702006;0.195546;-0;4.63175;-0.0422957;0.0722173;0;0;0;0;0;0;0;0;0;0;1.32812;1.92969;0.960938;0;1.71;2.04;1.93;0;0;0
15184;-3950;-32930;12684;-5346;-32118;1573221660104893;0.186916;0.785870203;0.617702005;0.195546;-0;4.63175;-0.0422957;0.0722173;0;0;0;0;0;0;0;0;0;0;1.32812;1.92969;0.960938;0;1.71;2.04;1.93;0;0;0
15124;-3958;-32860;12682;-5342;-32060;1573221660124910;0.186916;0.785870203;0.617702005;0.195546;-0;4.6321;-0.0431475;0.0699115;0;0;0;0;0;0;0;0;0;0;1.32812;1.92969;0.960938;0;1.71;2.04;1.93;0;0;0
15138;-3952;-32818;12748;-5368;-32052;1573221660144894;0.186916;0.785870203;0.617702005;0.195546;-0;4.6321;-0.0431475;0.0699115;0;0;0;0;0;0;0;0;0;0;1.32812;1.92969;0.960938;0;1.71;2.04;1.93;0;0;0
15120;-3952;-32740;12692;-5330;-32160;1573221660164923;0.186916;0.785870203;0.617702005;0.195546;-0;4.6321;-0.0431475;0.0699115;0;0;0;0;0;0;0;0;0;0;1.32812;1.92969;0.960938;0;1.71;2.04;1.93;0;0;0
15136;-3962;-32784;12738;-5432;-32090;1573221660184900;0.186916;0.785870203;0.617702005;0.195546;-0;4.6321;-0.0431475;0.0699115;0;0;0;0;0;0;0;0;0;0;1.32812;1.92969;0.960938;0;1.71;2.04;1.93;0;0;0
15180;-3994;-32782;12680;-5380;-32024;1573221660204882;0.186916;0.785870203;0.617702005;0.195546;-0;4.6321;-0.0431475;0.0699115;0;0;0;0;0;0;0;0;0;0;1.32812;1.92969;0.960938;0;1.71;2.04;1.93;0;0;0
15154;-3982;-32796;12694;-5388;-32104;1573221660224942;0.186916;0.785870203;0.617702005;0.195546;-0;4.6321;-0.0431475;0.0699115;0;0;0;0;0;0;0;0;0;0;1.32812;1.92969;0.960938;0;1.71;2.04;1.93;0;0;0
15154;-3978;-32800;12678;-5404;-32136;1573221660244929;0.186916;0.785870203;0.617702005;0.195546;-0;4.6321;-0.0431475;0.0699115;0;0;0;0;0;0;0;0;0;0;1.32812;1.92969;0.960938;0;1.71;2.04;1.93;0;0;0
15132;-4000;-32820;12754;-5368;-32150;1573221660264918;0.186916;0.785870203;0.617702005;0.195546;-0;4.6321;-0.0431475;0.0699115;0;0;0;0;0;0;0;0;0;0;1.32812;1.92969;0.960938;0;1.71;2.04;1.93;0;0;0
15108;-4042;-32878;12684;-5420;-32094;1573221660284954;0.186916;0.785870203;0.617702005;0.195546;-0;4.6321;-0.0431475;0.0699115;0;0;0;0;0;0;0;0;0;0;1.32812;1.92969;0.960938;0;1.71;2.04;1.93;0;0;0
15184;-4020;-32828;12714;-5414;-32044;1573221660304900;0.186916;0.785870203;0.617702005;0.195546;-0;4.6321;-0.0431475;0.0699115;0;0;0;0;0;0;0;0;0;0;1.32812;1.92969;0.960938;0;1.71;2.04;1.93;0;0;0
15190;-4026;-32734;12668;-5410;-32148;1573221660325032;0.186916;0.785870203;0.617702005;0.163455;-0;4.63272;-0.044339;0.0660407;0;0;0;0;0;0;0;0;0;0;1.32812;1.92969;0.960938;0;1.71;2.04;1.93;0;0;0
15160;-4008;-32738;12756;-5398;-32170;1573221660344906;0.186916;0.785870203;0.617702005;0.163455;-0;4.63272;-0.044339;0.0660407;0;0;0;0;0;0;0;0;0;0;1.32812;1.92969;0.960938;0;1.71;2.04;1.93;0;0;0
15154;-4052;-32722;12704;-5474;-32068;1573221660364901;0.186916;0.785870203;0.617702005;0.163455;-0;4.63272;-0.044339;0.0660407;0;0;0;0;0;0;0;0;0;0;1.32812;1.92969;0.960938;0;1.71;2.04;1.93;0;0;0
15106;-4042;-32756;12674;-5452;-32014;1573221660384902;0.186916;0.785870203;0.617702005;0.163455;-0;4.63272;-0.044339;0.0660407;0;0;0;0;0;0;0;0;0;0;1.32812;1.92969;0.960938;0;1.71;2.04;1.93;0;0;0
15122;-4056;-32716;12684;-5436;-32032;1573221660404896;0.186916;0.785870203;0.617702005;0.163455;-0;4.63272;-0.044339;0.0660407;0;0;0;0;0;0;0;0;0;0;1.32812;1.92969;0.960938;0;1.71;2.04;1.93;0;0;0
