Front_X;Front_Y;Front_Z;Back_X;Back_Y;Back_Z;Timestamp;SpeedShip;Latitude;Longitude;Depth;DistToFloor;Heading;Pitch;Roll;M_UP;M_Down;M_Right;M_Left;VertForvUp;VertForvDown;VertBackUp;VertBackDown;GorizForw;GorizBack;Bat1_50_I;Bat2_50_I;Bat3_50_I;Bat4_50_I;Bat1_27_I;Bat2_27_I;Bat3_27_I;Bat4_27_I;SpeedShipEML;EmiErrorFlag
1968;13868;-33090;3092;14820;-32528;1573218440052761;0.005556;0.785869267;0.617681912;4.16091;4.67345;6.1626;-0.0497403;0.0677707;-0.00195368;0.000661629;0.00235315;0.00469382;0.00650394;0.0179202;-0.0019724;-0.00119842;0.00702201;0.000511826;1.23438;2.07812;1.03125;0;1.74;2.13;1.99;0;0;0
1970;13808;-33036;3108;14854;-32494;1573218440072762;0.005556;0.785869267;0.617681912;4.16091;4.67345;6.1626;-0.0497403;0.0677707;13.4773;12.6708;-15.1586;-13.6437;-21.2726;-21.1305;-23.039;-22.9224;-6.32991;6.00521;1.23438;2.07812;1.03125;0;1.74;2.13;1.99;0;0;0
1978;13782;-33052;3096;14858;-32466;1573218440092752;0.005556;0.785869267;0.617681912;4.16091;4.67345;6.1626;-0.0497403;0.0677707;13.4773;12.6708;-15.1586;-13.6437;-21.2726;-21.1305;-23.039;-22.9224;-6.32991;6.00521;1.59375;2.14844;1.13281;0;1.68;2.07;2.08;0;0;0
1982;13782;-33094;3142;14910;-32488;1573218440112773;0.005556;0.785869267;0.617681912;4.16091;4.67345;6.1626;-0.0497403;0.0677707;13.4773;12.6708;-15.1586;-13.6437;-21.2726;-21.1305;-23.039;-22.9224;-6.32991;6.00521;1.59375;2.14844;1.13281;0;1.68;2.07;2.08;0;0;0
1940;13734;-33222;3120;14930;-32536;1573218440132764;0.005556;0.785869267;0.617681912;4.16091;4.67345;6.1626;-0.0497403;0.0677707;13.4773;12.6708;-15.1586;-13.6437;-21.2726;-21.1305;-23.039;-22.9224;-6.32991;6.00521;1.59375;2.14844;1.13281;0;1.68;2.07;2.08;0;0;0
1920;13782;-33214;3114;14942;-32600;1573218440152749;0.005556;0.785869267;0.617681912;4.1537;4.67345;6.16302;-0.0506288;0.067183;13.4773;12.6708;-15.1586;-13.6437;-21.2726;-21.1305;-23.039;-22.9224;-6.32991;6.00521;1.59375;2.14844;1.13281;0;1.68;2.07;2.08;0;0;0
1876;13694;-33258;3108;14952;-32622;1573218440172758;0.005556;0.785869267;0.617681912;4.1537;4.67345;6.16302;-0.0506288;0.067183;13.4773;12.6708;-15.1586;-13.6437;-21.2726;-21.1305;-23.039;-22.9224;-6.32991;6.00521;1.59375;2.14844;1.13281;0;1.68;2.07;2.08;0;0;0
1894;13740;-33248;3126;14976;-32558;1573218440192775;0.005556;0.785869267;0.617681912;4.1537;4.67345;6.16302;-0.0506288;0.067183;13.4773;12.6708;-15.1586;-13.6437;-21.2726;-21.1305;-23.039;-22.9224;-6.32991;6.00521;1.59375;2.14844;1.13281;0;1.68;2.07;2.08;0;0;0
1902;13664;-33276;3126;14976;-32558;1573218440212749;0.005556;0.785869267;0.617681912;4.1537;4.67345;6.16302;-0.0506288;0.067183;13.4773;12.6708;-15.1586;-13.6437;-21.2726;-21.1305;-23.039;-22.9224;-6.32991;6.00521;1.59375;2.14844;1.13281;0;1.68;2.07;2.08;0;0;0
1888;13732;-33278;3126;14976;-32558;1573218440232737;0.005556;0.785869267;0.617681912;4.1537;4.67345;6.16302;-0.0506288;0.067183;13.4773;12.6708;-15.1586;-13.6437;-21.2726;-21.1305;-23.039;-22.9224;-6.32991;6.00521;1.59375;2.14844;1.13281;0;1.68;2.07;2.08;0;0;0
1860;13668;-33254;3126;14976;-32558;1573218440252779;0.005556;0.785869267;0.617681912;4.1537;4.67345;6.16302;-0.0506288;0.067183;13.4773;12.6708;-15.1586;-13.6437;-21.2726;-21.1305;-23.039;-22.9224;-6.32991;6.00521;1.59375;2.14844;1.13281;0;1.68;2.07;2.08;0;0;0
1870;13698;-33280;3126;14976;-32558;1573218440272766;0.005556;0.785869267;0.617681912;4.1537;4.67345;6.16302;-0.0506288;0.067183;13.4773;12.6708;-15.1586;-13.6437;-21.2726;-21.1305;-23.039;-22.9224;-6.32991;6.00521;1.59375;2.14844;1.13281;0;1.68;2.07;2.08;0;0;0
1874;13634;-33120;3126;15024;-32628;1573218440292745;0.005556;0.785869267;0.617681912;4.1537;4.67345;6.16302;-0.0506288;0.067183;13.4773;12.6708;-15.1586;-13.6437;-21.2726;-21.1305;-23.039;-22.9224;-6.32991;6.00521;1.59375;2.14844;1.13281;0;1.68;2.07;2.08;0;0;0
1936;13650;-33156;3144;15108;-32660;1573218440312785;0.005556;0.785869267;0.617681912;4.1537;4.67337;6.16302;-0.0506288;0.067183;13.4773;12.6708;-15.1586;-13.6437;-21.2726;-21.1305;-23.039;-22.9224;-6.32991;6.00521;1.59375;2.14844;1.13281;0;1.68;2.07;2.08;0;0;0
1884;13600;-33268;3158;15246;-32624;1573218440332783;0.005556;0.785869267;0.617681912;4.1537;4.67337;6.16302;-0.0506288;0.067183;13.4773;12.6708;-15.1586;-13.6437;-21.2726;-21.1305;-23.039;-22.9224;-6.32991;6.00521;1.59375;2.14844;1.13281;0;1.68;2.07;2.08;0;0;0
1934;13624;-33256;3178;15230;-32616;1573218440352755;0.005556;0.785869267;0.617681912;4.1537;4.67337;6.16343;-0.0515616;0.066721;13.4773;12.6708;-15.1586;-13.6437;-21.2726;-21.1305;-23.039;-22.9224;-6.32991;6.00521;1.59375;2.14844;1.13281;0;1.68;2.07;2.08;0;0;0
1904;13602;-33232;3148;15304;-32600;1573218440372755;0.005556;0.785869267;0.617681912;4.1537;4.67337;6.16343;-0.0515616;0.066721;13.4773;12.6708;-15.1586;-13.6437;-21.2726;-21.1305;-23.039;-22.9224;-6.32991;6.00521;1.59375;2.14844;1.13281;0;1.68;2.07;2.08;0;0;0
1856;13578;-33192;3156;15256;-32552;1573218440392817;0.005556;0.785869267;0.617681912;4.1537;4.67337;6.16343;-0.0515616;0.066721;13.4773;12.6708;-15.1586;-13.6437;-21.2726;-21.1305;-23.039;-22.9224;-6.32991;6.00521;1.59375;2.14844;1.13281;0;1.68;2.07;2.08;0;0;0
1864;13576;-33200;3208;15356;-32544;1573218440412806;0.005556;0.785869267;0.617681912;4.1537;4.67337;6.16343;-0.0515616;0.066721;13.4773;12.6708;-15.1586;-13.6437;-21.2726;-21.1305;-23.039;-22.9224;-6.32991;6.00521;1.59375;2.14844;1.13281;0;1.68;2.07;2.08;0;0;0
1848;13552;-33180;3252;15376;-32574;1573218440432765;0.005556;0.785869267;0.617681912;4.1537;4.67337;6.16343;-0.0515616;0.066721;13.4773;12.6708;-15.1586;-13.6437;-21.2726;-21.1305;-23.039;-22.9224;-6.32991;6.00521;1.59375;2.14844;1.13281;0;1.68;2.07;2.08;0;0;0
1858;13568;-33140;3218;15474;-32610;1573218440452813;0.005556;0.785869267;0.617681912;4.1537;4.67337;6.16343;-0.0515616;0.066721;13.4773;12.6708;-15.1586;-13.6437;-21.2726;-21.1305;-23.039;-22.9224;-6.32991;6.00521;1.59375;2.14844;1.13281;0;1.68;2.07;2.08;0;0;0
1834;13500;-33288;3262;15426;-32612;1573218440472769;0.005556;0.785869267;0.617681912;4.1537;4.67337;6.16343;-0.0515616;0.066721;13.4773;12.6708;-15.1586;-13.6437;-21.2726;-21.1305;-23.039;-22.9224;-6.32991;6.00521;1.59375;2.14844;1.13281;0;1.68;2.07;2.08;0;0;0
1816;13536;-33272;3246;15472;-32650;1573218440492801;0.005556;0.785869267;0.617681912;4.1537;4.67337;6.16343;-0.0515616;0.066721;13.4773;12.6708;-15.1586;-13.6437;-21.2726;-21.1305;-23.039;-22.9224;-6.32991;6.00521;1.59375;2.14844;1.13281;0;1.68;2.07;2.08;0;0;0
1836;13454;-33276;3258;15514;-32728;1573218440512761;0.005556;0.785869267;0.617681912;4.1537;4.67337;6.16343;-0.0515616;0.066721;13.4773;12.6708;-15.1586;-13.6437;-21.2726;-21.1305;-23.039;-22.9224;-6.32991;6.00521;1.59375;2.14844;1.13281;0;1.68;2.07;2.08;0;0;0
1798;13540;-33302;3252;15474;-32736;1573218440532831;0.005556;0.785869267;0.617681912;4.1537;4.67337;6.16343;-0.0515616;0.066721;13.4773;12.6708;-15.1586;-13.6437;-21.2726;-21.1305;-23.039;-22.9224;-6.32991;6.00521;1.59375;2.14844;1.13281;0;1.68;2.07;2.08;0;0;0
1818;13452;-33296;3252;15626;-32724;1573218440552782;0.005556;0.785869267;0.617681912;4.1537;4.67337;6.16343;-0.0515616;0.066721;13.4773;12.6708;-15.1586;-13.6437;-21.2726;-21.1305;-23.039;-22.9224;-6.32991;6.00521;1.59375;2.14844;1.13281;0;1.68;2.07;2.08;0;0;0
1806;13490;-33292;3286;15618;-32702;1573218440572806;0.005556;0.785869267;0.617681912;4.1537;4.67337;6.16343;-0.0515616;0.066721;13.4773;12.6708;-15.1586;-13.6437;-21.2726;-21.1305;-23.039;-22.9224;-6.32991;6.00521;1.59375;2.14844;1.13281;0;1.68;2.07;2.08;0;0;0
1800;13406;-33304;3272;15652;-32616;1573218440592769;0.005556;0.785869267;0.617681912;4.1537;4.67337;6.16343;-0.0515616;0.066721;13.4773;12.6708;-15.1586;-13.6437;-27.982;-39.6181;-23.039;-22.9224;-0.00297733;6.00521;1.59375;2.14844;1.13281;0;1.68;2.07;2.08;0;0;0
1804;13438;-33204;3298;15688;-32638;1573218440612850;0.005556;0.785869267;0.617681912;4.1537;4.67337;6.16343;-0.0515616;0.066721;13.4773;12.6708;-15.1586;-13.6437;-27.982;-39.6181;-23.039;-22.9224;-0.00297733;0.00160414;1.59375;2.14844;1.13281;0;1.68;2.07;2.08;0;0;0
1794;13410;-33228;3322;15750;-32656;1573218440632794;0.005556;0.785869267;0.617681912;4.1537;4.67337;6.16343;-0.0515616;0.066721;13.4773;12.6708;-15.1586;-13.6437;-27.982;-39.6181;-23.039;-22.9224;-0.00297733;0.00160414;1.59375;2.14844;1.13281;0;1.68;2.07;2.08;0;0;0
1772;13374;-33218;3314;15834;-32784;1573218440652794;0.005556;0.785869267;0.617681912;4.1537;4.67337;6.16343;-0.0515616;0.066721;13.4773;12.6708;-15.1586;-13.6437;-27.982;-39.6181;-23.039;-22.9224;-0.00297733;0.00160414;1.59375;2.14844;1.13281;0;1.68;2.07;2.08;0;0;0
1752;13360;-33278;3330;15926;-32770;1573218440672781;0.005556;0.785869267;0.617681912;4.1537;4.67337;6.16343;-0.0515616;0.066721;13.4773;12.6708;-15.1586;-13.6437;-27.982;-39.6181;-23.039;-22.9224;-0.00297733;0.00160414;1.59375;2.14844;1.13281;0;1.68;2.07;2.08;0;0;0
1736;13340;-33292;3364;15888;-32652;1573218440692769;0.005556;0.785869267;0.617681912;4.1537;4.67337;6.16343;-0.0515616;0.066721;13.4773;12.6708;-15.1586;-13.6437;-27.982;-39.6181;-23.039;-22.9224;-0.00297733;0.00160414;1.59375;2.14844;1.13281;0;1.68;2.07;2.08;0;0;0
1726;13364;-33216;3350;15864;-32632;1573218440712780;0.005556;0.785869267;0.617681912;4.1537;4.67337;6.16343;-0.0515616;0.066721;13.4773;12.6708;-15.1586;-13.6437;-27.982;-39.6181;-23.039;-22.9224;-0.00297733;0.00160414;1.59375;2.14844;1.13281;0;1.68;2.07;2.08;0;0;0
1714;13298;-33208;3350;16046;-32708;1573218440732915;0.011112;0.785869267;0.617681912;4.1537;4.6731;6.16343;-0.0515616;0.066721;13.4773;12.6708;-15.1586;-13.6437;-27.982;-39.6181;-23.039;-22.9224;-0.00297733;0.00160414;1.59375;2.14844;1.13281;0;1.68;2.07;2.08;0;0;0
1720;13312;-33184;3382;16020;-32718;1573218440752768;0.011112;0.785869264;0.617681912;4.17545;4.6731;6.1638;-0.0526628;0.0665251;13.4773;12.6708;-15.1586;-13.6437;-27.982;-39.6181;-23.039;-22.9224;-0.00297733;0.00160414;1.59375;2.14844;1.13281;0;1.68;2.07;2.08;0;0;0
1718;13228;-33250;3418;16158;-32810;1573218440772859;0.011112;0.785869264;0.617681912;4.17545;4.6731;6.1638;-0.0526628;0.0665251;13.4773;12.6708;-15.1586;-13.6437;-27.982;-39.6181;-23.039;-22.9224;-0.00297733;0.00160414;1.59375;2.14844;1.13281;0;1.68;2.07;2.08;0;0;0
1718;13344;-33254;3444;16120;-32832;1573218440792753;0.011112;0.785869264;0.617681912;4.17545;4.6731;6.1638;-0.0526628;0.0665251;13.4773;12.6708;-15.1586;-13.6437;-27.982;-39.6181;-23.039;-22.9224;-0.00297733;0.00160414;1.59375;2.14844;1.13281;0;1.68;2.07;2.08;0;0;0
1720;13262;-33332;3462;16234;-32774;1573218440812796;0.011112;0.785869264;0.617681912;4.17545;4.6731;6.1638;-0.0526628;0.0665251;13.4773;12.6708;-15.1586;-13.6437;-27.982;-39.6181;-23.039;-22.9224;-0.00297733;0.00160414;1.59375;2.14844;1.13281;0;1.68;2.07;2.08;0;0;0
1688;13236;-33226;3448;16256;-32772;1573218440832777;0.011112;0.785869264;0.617681912;4.17545;4.6731;6.1638;-0.0526628;0.0665251;13.4773;12.6708;-15.1586;-13.6437;-27.982;-39.6181;-23.039;-22.9224;-0.00297733;0.00160414;1.59375;2.14844;1.13281;0;1.68;2.07;2.08;0;0;0
1686;13312;-33190;3490;16366;-32746;1573218440852833;0.011112;0.785869264;0.617681912;4.17545;4.6731;6.1638;-0.0526628;0.0665251;13.4773;12.6708;-15.1586;-13.6437;-27.982;-39.6181;-23.039;-22.9224;-0.00297733;0.00160414;1.59375;2.14844;1.13281;0;1.68;2.07;2.08;0;0;0
1678;13198;-33228;3510;16338;-32746;1573218440872756;0.011112;0.785869264;0.617681912;4.17545;4.6731;6.1638;-0.0526628;0.0665251;13.4773;12.6708;-15.1586;-13.6437;-27.982;-39.6181;-23.039;-22.9224;-0.00297733;0.00160414;1.59375;2.14844;1.13281;0;1.68;2.07;2.08;0;0;0
1648;13228;-33240;3524;16450;-32762;1573218440892797;0.011112;0.785869264;0.617681912;4.17545;4.6731;6.1638;-0.0526628;0.0665251;13.4773;12.6708;-15.1586;-13.6437;-27.982;-39.6181;-23.039;-22.9224;-0.00297733;0.00160414;1.59375;2.14844;1.13281;0;1.68;2.07;2.08;0;0;0
1644;13178;-33268;3560;16458;-32886;1573218440911764;0.011112;0.785869264;0.617681912;4.17545;4.6731;6.1638;-0.0526628;0.0665251;13.4773;12.6708;-15.1586;-13.6437;-27.982;-39.6181;-23.039;-22.9224;-0.00297733;0.00160414;1.59375;2.14844;1.13281;0;1.68;2.07;2.08;0;0;0
1584;13214;-33330;3566;16514;-32914;1573218440931805;0.011112;0.785869264;0.617681912;4.17545;4.6731;6.1638;-0.0526628;0.0665251;13.4773;12.6708;-15.1586;-13.6437;-27.982;-39.6181;-23.039;-22.9224;-0.00297733;0.00160414;1.59375;2.14844;1.13281;0;1.68;2.07;2.08;0;0;0
1556;13144;-33444;3546;16608;-32882;1573218440951750;0.011112;0.785869264;0.617681912;4.17545;4.6731;6.16424;-0.0538586;0.0663451;13.4773;12.6708;-15.1586;-13.6437;-27.982;-39.6181;-23.039;-22.9224;-0.00297733;0.00160414;1.59375;2.14844;1.13281;0;1.68;2.07;2.08;0;0;0
1560;13136;-33412;3596;16622;-32854;1573218440971772;0.011112;0.785869264;0.617681912;4.17545;4.6731;6.16424;-0.0538586;0.0663451;13.4773;12.6708;-15.1586;-13.6437;-27.982;-39.6181;-23.039;-22.9224;-0.00297733;0.00160414;1.59375;2.14844;1.13281;0;1.68;2.07;2.08;0;0;0
1592;13116;-33442;3596;16702;-32780;1573218440991766;0.011112;0.785869264;0.617681912;4.17545;4.6731;6.16424;-0.0538586;0.0663451;13.4773;12.6708;-15.1586;-13.6437;-27.982;-39.6181;-23.039;-22.9224;-0.00297733;0.00160414;1.59375;2.14844;1.13281;0;1.68;2.07;2.08;0;0;0
1582;13100;-33352;3598;16830;-32838;1573218441011737;0.011112;0.785869264;0.617681912;4.17545;4.70252;6.16424;-0.0538586;0.0663451;13.4773;12.6708;-15.1586;-13.6437;-27.982;-39.6181;-23.039;-22.9224;-0.00297733;0.00160414;1.59375;2.14844;1.13281;0;1.68;2.07;2.08;0;0;0
1536;13086;-33290;3620;16764;-32970;1573218441031770;0.011112;0.785869264;0.617681912;4.17545;4.70252;6.16424;-0.0538586;0.0663451;13.4773;12.6708;-15.1586;-13.6437;-27.982;-39.6181;-23.039;-22.9224;-0.00297733;0.00160414;1.59375;2.14844;1.13281;0;1.68;2.07;2.08;0;0;0
1544;13050;-33282;3714;17008;-33008;1573218441051771;0.011112;0.785869264;0.617681912;4.17545;4.70252;6.16424;-0.0538586;0.0663451;13.4773;12.6708;-15.1586;-13.6437;-27.982;-39.6181;-23.039;-22.9224;-0.00297733;0.00160414;1.59375;2.14844;1.13281;0;1.68;2.07;2.08;0;0;0
1562;13056;-33300;3668;16938;-32938;1573218441071833;0.011112;0.785869264;0.617681912;4.17545;4.70252;6.16424;-0.0538586;0.0663451;13.4773;12.6708;-15.1586;-13.6437;-27.982;-39.6181;-23.039;-22.9224;-0.00297733;0.00160414;1.59375;2.14844;1.13281;0;1.68;2.07;2.08;0;0;0
1584;13018;-33278;3724;17148;-32878;1573218441091779;0.011112;0.785869264;0.617681912;4.17545;4.70252;6.16424;-0.0538586;0.0663451;0.0236876;12.6708;-15.1586;-13.6437;-27.982;-39.6181;-23.039;-22.9224;-0.00297733;0.00160414;1.59375;2.14844;1.13281;0;1.68;2.07;2.08;0;0;0
1510;13038;-33440;3738;17146;-32902;1573218441111770;0.011112;0.785869264;0.617681912;4.17545;4.70252;6.16424;-0.0538586;0.0663451;0.0236876;-1.24087;-15.1586;-13.6437;-27.982;-39.6181;-23.039;-22.9224;-0.00297733;0.00160414;1.59375;2.14844;1.13281;0;1.68;2.07;2.08;0;0;0
1538;12962;-33412;3740;17292;-33058;1573218441131858;0.011112;0.785869264;0.617681912;4.17545;4.70252;6.16424;-0.0538586;0.0663451;0.0236876;-1.24087;-23.3016;-24.5349;-50.994;-51.5426;-60.8488;-56.6024;0.0196491;0.00526182;1.89844;3.46094;1.13281;0;1.92;2.21;2.05;0;0;0
1466;12972;-33384;3802;17266;-32934;1573218441151814;0.011112;0.785869264;0.617681912;4.17545;4.70252;6.16424;-0.0538586;0.0663451;0.0236876;-1.24087;-23.3016;-24.5349;-50.994;-51.5426;-60.8488;-56.6024;0.0196491;0.00526182;1.89844;3.46094;1.13281;0;1.92;2.21;2.05;0;0;0
1458;12904;-33344;3798;17406;-32930;1573218441171756;0.011112;0.785869264;0.617681912;4.17545;4.70252;6.16461;-0.0550271;0.06635;0.0236876;-1.24087;-23.3016;-24.5349;-50.994;-51.5426;-60.8488;-56.6024;0.0196491;0.00526182;1.89844;3.46094;1.13281;0;1.92;2.21;2.05;0;0;0
1450;12890;-33358;3830;17380;-33024;1573218441191755;0.011112;0.785869264;0.617681912;4.17545;4.70252;6.16461;-0.0550271;0.06635;0.0236876;-1.24087;-23.3016;-24.5349;-50.994;-51.5426;-60.8488;-56.6024;0.0196491;0.00526182;1.89844;3.46094;1.13281;0;1.92;2.21;2.05;0;0;0
1420;12812;-33316;3826;17568;-33088;1573218441211771;0.011112;0.785869264;0.617681912;4.17545;4.70252;6.16461;-0.0550271;0.06635;0.0236876;-1.24087;-23.3016;-24.5349;-50.994;-51.5426;-60.8488;-56.6024;0.0196491;0.00526182;1.89844;3.46094;1.13281;0;1.92;2.21;2.05;0;0;0
1450;12830;-33354;3866;17568;-33032;1573218441231798;0.011112;0.785869264;0.617681912;4.17545;4.70252;6.16461;-0.0550271;0.06635;0.0236876;-1.24087;-23.3016;-24.5349;-50.994;-51.5426;-60.8488;-56.6024;0.0196491;0.00526182;1.89844;3.46094;1.13281;0;1.92;2.21;2.05;0;0;0
1388;12782;-33444;3898;17794;-33008;1573218441251822;0.011112;0.785869264;0.617681912;4.17545;4.70252;6.16461;-0.0550271;0.06635;0.0236876;-1.24087;-23.3016;-24.5349;-50.994;-51.5426;-60.8488;-56.6024;0.0196491;0.00526182;1.89844;3.46094;1.13281;0;1.92;2.21;2.05;0;0;0
1384;12786;-33452;3950;17690;-33086;1573218441271780;0.011112;0.785869264;0.617681912;4.17545;4.70218;6.16461;-0.0550271;0.06635;0.0236876;-1.24087;-23.3016;-24.5349;-50.994;-51.5426;-60.8488;-56.6024;0.0196491;0.00526182;1.89844;3.46094;1.13281;0;1.92;2.21;2.05;0;0;0
1404;12706;-33488;3984;17804;-33066;1573218441291770;0.011112;0.785869264;0.617681912;4.17545;4.70218;6.16461;-0.0550271;0.06635;0.0236876;-1.24087;-23.3016;-24.5349;-50.994;-51.5426;-60.8488;-56.6024;0.0196491;0.00526182;1.89844;3.46094;1.13281;0;1.92;2.21;2.05;0;0;0
1412;12694;-33516;4018;17920;-33044;1573218441311898;0.011112;0.785869264;0.617681912;4.17545;4.70218;6.16461;-0.0550271;0.06635;0.0236876;-1.24087;-23.3016;-24.5349;-50.994;-51.5426;-60.8488;-56.6024;0.0196491;0.00526182;1.89844;3.46094;1.13281;0;1.92;2.21;2.05;0;0;0
1412;12638;-33520;4022;17986;-33176;1573218441331761;0.011112;0.785869264;0.617681912;4.17545;4.70218;6.16461;-0.0550271;0.06635;0.0236876;-1.24087;-23.3016;-24.5349;-50.994;-51.5426;-60.8488;-56.6024;0.0196491;0.00526182;1.89844;3.46094;1.13281;0;1.92;2.21;2.05;0;0;0
1408;12644;-33468;4056;18232;-33174;1573218441351783;0.011112;0.785869264;0.617681912;4.17545;4.70218;6.16461;-0.0550271;0.06635;0.0236876;-1.24087;-23.3016;-24.5349;-50.994;-51.5426;-60.8488;-56.6024;0.0196491;0.00526182;1.89844;3.46094;1.13281;0;1.92;2.21;2.05;0;0;0
1384;12636;-33500;4084;18218;-33120;1573218441371812;0.011112;0.785869264;0.617681912;4.17824;4.70218;6.16488;-0.0561958;0.0664547;0.0236876;-1.24087;-23.3016;-24.5349;-50.994;-51.5426;-60.8488;-56.6024;0.0196491;0.00526182;1.89844;3.46094;1.13281;0;1.92;2.21;2.05;0;0;0
1384;12556;-33472;4114;18308;-33122;1573218441391744;0.011112;0.785869264;0.617681912;4.17824;4.70218;6.16488;-0.0561958;0.0664547;0.0236876;-1.24087;-23.3016;-24.5349;-50.994;-51.5426;-60.8488;-56.6024;0.0196491;0.00526182;1.89844;3.46094;1.13281;0;1.92;2.21;2.05;0;0;0
1332;12552;-33580;4130;18378;-33226;1573218441411765;0.011112;0.785869264;0.617681912;4.17824;4.70218;6.16488;-0.0561958;0.0664547;0.0236876;-1.24087;-23.3016;-24.5349;-50.994;-51.5426;-60.8488;-56.6024;0.0196491;0.00526182;1.89844;3.46094;1.13281;0;1.92;2.21;2.05;0;0;0
1344;12512;-33548;4184;18522;-33266;1573218441431821;0.011112;0.785869264;0.617681912;4.17824;4.70218;6.16488;-0.0561958;0.0664547;0.0236876;-1.24087;-23.3016;-24.5349;-50.994;-51.5426;-60.8488;-56.6024;0.0196491;0.00526182;1.89844;3.46094;1.13281;0;1.92;2.21;2.05;0;0;0
1250;12450;-33592;4256;18568;-33234;1573218441451781;0.011112;0.785869264;0.617681912;4.17824;4.70218;6.16488;-0.0561958;0.0664547;0.0236876;-1.24087;-23.3016;-24.5349;-50.994;-51.5426;-60.8488;-56.6024;0.0196491;0.00526182;1.89844;3.46094;1.13281;0;1.92;2.21;2.05;0;0;0
1310;12450;-33614;4270;18736;-33156;1573218441471895;0.011112;0.785869264;0.617681912;4.17824;4.70218;6.16488;-0.0561958;0.0664547;0.0236876;-1.24087;-23.3016;-24.5349;-50.994;-51.5426;-60.8488;-56.6024;0.0196491;0.00526182;1.89844;3.46094;1.13281;0;1.92;2.21;2.05;0;0;0
1260;12394;-33650;4280;18814;-33258;1573218441491786;0.011112;0.785869264;0.617681912;4.17824;4.70218;6.16488;-0.0561958;0.0664547;0.0236876;-1.24087;-23.3016;-24.5349;-50.994;-51.5426;-60.8488;-56.6024;0.0196491;0.00526182;1.89844;3.46094;1.13281;0;1.92;2.21;2.05;0;0;0
1234;12360;-33646;4336;18898;-33338;1573218441511817;0.011112;0.785869264;0.617681912;4.17824;4.70218;6.16488;-0.0561958;0.0664547;0.0236876;-1.24087;-23.3016;-24.5349;-50.994;-51.5426;-60.8488;-56.6024;0.0196491;0.00526182;1.89844;3.46094;1.13281;0;1.92;2.21;2.05;0;0;0
1246;12386;-33672;4342;19034;-33352;1573218441531748;0.011112;0.785869264;0.617681912;4.17824;4.70181;6.16488;-0.0561958;0.0664547;0.0236876;-1.24087;-23.3016;-24.5349;-50.994;-51.5426;-60.8488;-56.6024;0.0196491;0.00526182;1.89844;3.46094;1.13281;0;1.92;2.21;2.05;0;0;0
1232;12268;-33588;4398;19130;-33320;1573218441551773;0.011112;0.785869264;0.617681912;4.17824;4.70181;6.16488;-0.0561958;0.0664547;0.0236876;-1.24087;-23.3016;-24.5349;-50.994;-51.5426;-60.8488;-56.6024;0.0196491;0.00526182;1.89844;3.46094;1.13281;0;1.92;2.21;2.05;0;0;0
1234;12240;-33534;4402;19252;-33316;1573218441571754;0.011112;0.785869264;0.617681912;4.17824;4.70181;6.16488;-0.0561958;0.0664547;0.0236876;-1.24087;-23.3016;-24.5349;-50.994;-51.5426;-60.8488;-56.6024;0.0196491;0.00526182;1.89844;3.46094;1.13281;0;1.92;2.21;2.05;0;0;0
1264;12168;-33570;4486;19358;-33344;1573218441591820;0.011112;0.785869264;0.617681912;4.15136;4.70181;6.16526;-0.0574104;0.0666481;0.0236876;-1.24087;-23.3016;-24.5349;-50.994;-51.5426;-60.8488;-56.6024;0.0196491;0.00526182;1.89844;3.46094;1.13281;0;1.92;2.21;2.05;0;0;0
1244;12200;-33578;4546;19550;-33408;1573218441611793;0.011112;0.785869264;0.617681912;4.15136;4.70181;6.16526;-0.0574104;0.0666481;0.0236876;-1.24087;-23.3016;-24.5349;-59.8841;-60.1113;-60.8488;-61.8592;-0.0223144;-0.00323949;1.89844;3.46094;1.13281;0;1.92;2.21;2.05;0;0;0
1208;12142;-33526;4536;19734;-33488;1573218441631763;0.011112;0.785869264;0.617681912;4.15136;4.70181;6.16526;-0.0574104;0.0666481;0.0236876;-1.24087;-23.3016;-24.5349;-59.8841;-60.1113;-60.8488;-61.8592;-0.0223144;-0.00323949;1.89844;3.46094;1.13281;0;1.92;2.21;2.05;0;0;0
1214;12032;-33578;4648;19818;-33396;1573218441651755;0.011112;0.785869264;0.617681912;4.15136;4.70181;6.16526;-0.0574104;0.0666481;0.0236876;-1.24087;-23.3016;-24.5349;-59.8841;-60.1113;-60.8488;-61.8592;-0.0223144;-0.00323949;1.89844;3.46094;1.13281;0;1.92;2.21;2.05;0;0;0
1190;12068;-33552;4694;19832;-33416;1573218441671804;0.011112;0.785869264;0.617681912;4.15136;4.70181;6.16526;-0.0574104;0.0666481;0.0236876;-1.24087;-23.3016;-24.5349;-59.8841;-60.1113;-60.8488;-61.8592;-0.0223144;-0.00323949;1.89844;3.46094;1.13281;0;1.92;2.21;2.05;0;0;0
1102;11994;-33652;4694;19954;-33432;1573218441691792;0.011112;0.785869264;0.617681912;4.15136;4.70181;6.16526;-0.0574104;0.0666481;0.0236876;-1.24087;-23.3016;-24.5349;-59.8841;-60.1113;-60.8488;-61.8592;-0.0223144;-0.00323949;1.89844;3.46094;1.13281;0;1.92;2.21;2.05;0;0;0
1098;11940;-33626;4722;20260;-33458;1573218441711771;0.011112;0.785869264;0.617681912;4.15136;4.70181;6.16526;-0.0574104;0.0666481;0.0236876;-1.24087;-23.3016;-24.5349;-59.8841;-60.1113;-60.8488;-61.8592;-0.0223144;-0.00323949;1.89844;3.46094;1.13281;0;1.92;2.21;2.05;0;0;0
1098;11864;-33616;4754;20312;-33562;1573218441731811;0.011112;0.785869264;0.617681912;4.15136;4.70181;6.16526;-0.0574104;0.0666481;0.0236876;-1.24087;-23.3016;-24.5349;-59.8841;-60.1113;-60.8488;-61.8592;-0.0223144;-0.00323949;1.89844;3.46094;1.13281;0;1.92;2.21;2.05;0;0;0
1082;11848;-33678;4814;20516;-33606;1573218441751385;0.011112;0.785869264;0.617681912;4.15136;4.70181;6.16526;-0.0574104;0.0666481;0.0236876;-1.24087;-23.3016;-24.5349;-59.8841;-60.1113;-60.8488;-61.8592;-0.0223144;-0.00323949;1.89844;3.46094;1.13281;0;1.92;2.21;2.05;0;0;0
1114;11822;-33724;4874;20536;-33642;1573218441771848;0.011112;0.785869264;0.617681912;4.15136;4.70181;6.16526;-0.0574104;0.0666481;0.0236876;-1.24087;-23.3016;-24.5349;-59.8841;-60.1113;-60.8488;-61.8592;-0.0223144;-0.00323949;1.89844;3.46094;1.13281;0;1.92;2.21;2.05;0;0;0
1080;11772;-33744;4912;20778;-33688;1573218441791815;0.011112;0.785869264;0.617681912;4.15136;4.70139;6.16526;-0.0574104;0.0666481;0.0236876;-1.24087;-23.3016;-24.5349;-59.8841;-60.1113;-60.8488;-61.8592;-0.0223144;-0.00323949;1.89844;3.46094;1.13281;0;1.92;2.21;2.05;0;0;0
1122;11732;-33788;4978;20776;-33686;1573218441811781;0.011112;0.785869262;0.617681912;4.15136;4.70139;6.16555;-0.0586601;0.0668476;0.0236876;-1.24087;-23.3016;-24.5349;-59.8841;-60.1113;-60.8488;-61.8592;-0.0223144;-0.00323949;1.89844;3.46094;1.13281;0;1.92;2.21;2.05;0;0;0
1080;11614;-33824;5050;20992;-33700;1573218441831784;0.011112;0.785869262;0.617681912;4.15136;4.70139;6.16555;-0.0586601;0.0668476;0.0236876;-1.24087;-23.3016;-24.5349;-59.8841;-60.1113;-60.8488;-61.8592;-0.0223144;-0.00323949;1.89844;3.46094;1.13281;0;1.92;2.21;2.05;0;0;0
1046;11616;-33848;5068;21184;-33634;1573218441851754;0.011112;0.785869262;0.617681912;4.15136;4.70139;6.16555;-0.0586601;0.0668476;0.0236876;-1.24087;-23.3016;-24.5349;-59.8841;-60.1113;-60.8488;-61.8592;-0.0223144;-0.00323949;1.89844;3.46094;1.13281;0;1.92;2.21;2.05;0;0;0
1024;11550;-33778;5100;21362;-33638;1573218441871745;0.011112;0.785869262;0.617681912;4.15136;4.70139;6.16555;-0.0586601;0.0668476;0.0236876;-1.24087;-23.3016;-24.5349;-59.8841;-60.1113;-60.8488;-61.8592;-0.0223144;-0.00323949;1.89844;3.46094;1.13281;0;1.92;2.21;2.05;0;0;0
1026;11558;-33780;5170;21430;-33694;1573218441891754;0.011112;0.785869262;0.617681912;4.15136;4.70139;6.16555;-0.0586601;0.0668476;0.0236876;-1.24087;-23.3016;-24.5349;-59.8841;-60.1113;-60.8488;-61.8592;-0.0223144;-0.00323949;1.89844;3.46094;1.13281;0;1.92;2.21;2.05;0;0;0
952;11432;-33828;5274;21548;-33830;1573218441911767;0.011112;0.785869262;0.617681912;4.15136;4.70139;6.16555;-0.0586601;0.0668476;0.0236876;-1.24087;-23.3016;-24.5349;-59.8841;-60.1113;-60.8488;-61.8592;-0.0223144;-0.00323949;1.89844;3.46094;1.13281;0;1.92;2.21;2.05;0;0;0
934;11448;-33842;5274;21698;-33762;1573218441931755;0.011112;0.785869262;0.617681912;4.15136;4.70139;6.16555;-0.0586601;0.0668476;0.0236876;-1.24087;-23.3016;-24.5349;-59.8841;-60.1113;-60.8488;-61.8592;-0.0223144;-0.00323949;1.89844;3.46094;1.13281;0;1.92;2.21;2.05;0;0;0
924;11380;-33860;5356;21808;-33748;1573218441951760;0.011112;0.785869262;0.617681912;4.15136;4.70139;6.16555;-0.0586601;0.0668476;0.0236876;-1.24087;-23.3016;-24.5349;-59.8841;-60.1113;-60.8488;-61.8592;-0.0223144;-0.00323949;1.89844;3.46094;1.13281;0;1.92;2.21;2.05;0;0;0
952;11272;-33878;5416;22082;-33870;1573218441971746;0.011112;0.785869262;0.617681912;4.15136;4.70139;6.16555;-0.0586601;0.0668476;0.0236876;-1.24087;-23.3016;-24.5349;-59.8841;-60.1113;-60.8488;-61.8592;-0.0223144;-0.00323949;1.89844;3.46094;1.13281;0;1.92;2.21;2.05;0;0;0
920;11272;-33888;5434;22350;-33968;1573218441992612;0.011112;0.785869262;0.617681912;4.15136;4.70139;6.16555;-0.0586601;0.0668476;0.0236876;-1.24087;-23.3016;-24.5349;-59.8841;-60.1113;-60.8488;-61.8592;-0.0223144;-0.00323949;1.89844;3.46094;1.13281;0;1.92;2.21;2.05;0;0;0
872;11226;-33920;5554;22238;-33954;1573218442011749;0.011112;0.785869262;0.617681912;4.15136;4.70139;6.16585;-0.0599394;0.0671469;0.0236876;-1.24087;-23.3016;-24.5349;-59.8841;-60.1113;-60.8488;-61.8592;-0.0223144;-0.00323949;1.89844;3.46094;1.13281;0;1.92;2.21;2.05;0;0;0
914;11154;-33958;5560;22670;-33900;1573218442031845;0.011112;0.785869262;0.617681912;4.15136;4.70139;6.16585;-0.0599394;0.0671469;0.0236876;-1.24087;-23.3016;-24.5349;-59.8841;-60.1113;-60.8488;-61.8592;-0.0223144;-0.00323949;1.89844;3.46094;1.13281;0;1.92;2.21;2.05;0;0;0
848;11056;-33868;5658;22698;-33924;1573218442051750;0.011112;0.785869262;0.617681912;4.15136;4.70139;6.16585;-0.0599394;0.0671469;0.0236876;-1.24087;-23.3016;-24.5349;-59.8841;-60.1113;-60.8488;-61.8592;-0.0223144;-0.00323949;1.89844;3.46094;1.13281;0;1.92;2.21;2.05;0;0;0
874;11072;-33872;5742;22934;-34028;1573218442071772;0.016668;0.785869262;0.617681912;4.15136;4.7005;6.16585;-0.0599394;0.0671469;0.0236876;-1.24087;-23.3016;-24.5349;-59.8841;-60.1113;-60.8488;-61.8592;-0.0223144;-0.00323949;1.89844;3.46094;1.13281;0;1.92;2.21;2.05;0;0;0
850;10900;-33924;5776;23242;-34100;1573218442091749;0.016668;0.785869262;0.617681912;4.15136;4.7005;6.16585;-0.0599394;0.0671469;0.0236876;-1.24087;-23.3016;-24.5349;-59.8841;-60.1113;-60.8488;-61.8592;-0.0223144;-0.00323949;1.89844;3.46094;1.13281;0;1.92;2.21;2.05;0;0;0
856;10910;-34066;5934;23260;-34098;1573218442111832;0.016668;0.785869262;0.617681912;4.15136;4.7005;6.16585;-0.0599394;0.0671469;0.0236876;-1.24087;-23.3016;-24.5349;-59.8841;-60.1113;-60.8488;-61.8592;-0.0223144;-0.00323949;1.89844;3.46094;1.13281;0;1.92;2.21;2.05;0;0;0
842;10812;-34016;5882;23556;-34036;1573218442131986;0.016668;0.785869262;0.617681912;4.15136;4.7005;6.16585;-0.0599394;0.0671469;0.0236876;-29.2141;-2.34497;-15.7447;-59.8841;-60.1113;-60.8488;-61.8592;-0.0223144;-0.00323949;1.89844;3.46094;8.23438;0;1.71;2.33;2.19;0;0;0
744;10792;-33910;5990;23578;-34130;1573218442151807;0.016668;0.785869262;0.617681912;4.15136;4.7005;6.16585;-0.0599394;0.0671469;0.0236876;-29.2141;-2.34497;-15.7447;-59.8841;-60.1113;-60.8488;-61.8592;-0.0223144;-0.00323949;1.89844;3.46094;8.23438;0;1.71;2.33;2.19;0;0;0
762;10664;-34008;6040;23858;-34244;1573218442171783;0.016668;0.785869262;0.617681912;4.15136;4.7005;6.16585;-0.0599394;0.0671469;0.0236876;-29.2141;-2.34497;-15.7447;-59.8841;-60.1113;-60.8488;-61.8592;-0.0223144;-0.00323949;1.89844;3.46094;8.23438;0;1.71;2.33;2.19;0;0;0
762;10684;-34080;6112;23922;-34294;1573218442191767;0.016668;0.785869262;0.617681912;4.15136;4.7005;6.16585;-0.0599394;0.0671469;10.2258;-29.2141;-2.34497;-15.7447;-59.8841;-60.1113;-60.8488;-61.8592;-0.0223144;-0.00323949;1.89844;3.46094;8.23438;0;1.71;2.33;2.19;0;0;0
690;10568;-34126;6174;24250;-34254;1573218442211794;0.016668;0.785869262;0.617681912;4.15136;4.7005;6.16585;-0.0599394;0.0671469;10.2258;-29.2141;-2.34497;-15.7447;-59.8841;-60.1113;-60.8488;-61.8592;-0.0223144;-0.00323949;1.89844;3.46094;8.23438;0;1.71;2.33;2.19;0;0;0
688;10472;-34162;6220;24566;-34206;1573218442231816;0.016668;0.785869262;0.617681912;4.15136;4.7005;6.16622;-0.0610815;0.0673444;10.2258;-29.2141;-2.34497;-15.7447;-59.8841;-60.1113;-60.8488;-61.8592;-0.0223144;-0.00323949;1.89844;3.46094;8.23438;0;1.71;2.33;2.19;0;0;0
636;10398;-34056;6418;24494;-34272;1573218442251470;0.016668;0.785869262;0.617681912;4.15136;4.7005;6.16622;-0.0610815;0.0673444;10.2258;-29.2141;-2.34497;-15.7447;-59.8841;-60.1113;-60.8488;-61.8592;-0.0223144;-0.00323949;1.89844;3.46094;8.23438;0;1.71;2.33;2.19;0;0;0
634;10370;-34152;6424;24892;-34310;1573218442271742;0.016668;0.785869262;0.617681912;4.15136;4.7005;6.16622;-0.0610815;0.0673444;10.2258;-29.2141;-2.34497;-15.7447;-59.8841;-60.1113;-60.8488;-61.8592;-0.0223144;-0.00323949;1.89844;3.46094;8.23438;0;1.71;2.33;2.19;0;0;0
636;10316;-34232;6468;25092;-34386;1573218442291786;0.016668;0.785869262;0.617681912;4.15136;4.7005;6.16622;-0.0610815;0.0673444;10.2258;-29.2141;-2.34497;-15.7447;-59.8841;-60.1113;-60.8488;-61.8592;-0.0223144;-0.00323949;1.89844;3.46094;8.23438;0;1.71;2.33;2.19;0;0;0
662;10176;-34204;6564;25480;-34432;1573218442311896;0.016668;0.785869262;0.617681912;4.15136;4.7005;6.16622;-0.0610815;0.0673444;10.2258;-29.2141;-2.34497;-15.7447;-59.8841;-60.1113;-60.8488;-61.8592;-0.0223144;-0.00323949;1.89844;3.46094;8.23438;0;1.71;2.33;2.19;0;0;0
614;10218;-34190;6674;25450;-34544;1573218442331810;0.016668;0.785869262;0.617681912;4.15136;4.70013;6.16622;-0.0610815;0.0673444;10.2258;-29.2141;-2.34497;-15.7447;-59.8841;-60.1113;-60.8488;-61.8592;-0.0223144;-0.00323949;1.89844;3.46094;8.23438;0;1.71;2.33;2.19;0;0;0
568;10094;-34168;6736;25600;-34608;1573218442351802;0.016668;0.785869262;0.617681912;4.15136;4.70013;6.16622;-0.0610815;0.0673444;10.2258;-29.2141;-2.34497;-15.7447;-59.8841;-60.1113;-60.8488;-61.8592;-0.0223144;-0.00323949;1.89844;3.46094;8.23438;0;1.71;2.33;2.19;0;0;0
578;10050;-34196;6842;25920;-34674;1573218442371942;0.016668;0.785869262;0.617681912;4.15136;4.70013;6.16622;-0.0610815;0.0673444;10.2258;-29.2141;-2.34497;-15.7447;-59.8841;-60.1113;-60.8488;-61.8592;-0.0223144;-0.00323949;1.89844;3.46094;8.23438;0;1.71;2.33;2.19;0;0;0
496;9910;-34362;6964;26184;-34672;1573218442391777;0.016668;0.785869262;0.617681912;4.15136;4.70013;6.16622;-0.0610815;0.0673444;10.2258;-29.2141;-2.34497;-15.7447;-59.8841;-60.1113;-60.8488;-61.8592;-0.0223144;-0.00323949;1.89844;3.46094;8.23438;0;1.71;2.33;2.19;0;0;0
440;9852;-34204;6962;26242;-34640;1573218442411749;0.016668;0.785869262;0.617681912;4.15136;4.70013;6.16622;-0.0610815;0.0673444;10.2258;-29.2141;-2.34497;-15.7447;-59.8841;-60.1113;-60.8488;-61.8592;-0.0223144;-0.00323949;1.89844;3.46094;8.23438;0;1.71;2.33;2.19;0;0;0
470;9810;-34250;6920;26356;-34626;1573218442431788;0.016668;0.785869262;0.617681912;4.14509;4.70013;6.1665;-0.0622239;0.0675402;10.2258;-29.2141;-2.34497;-15.7447;-59.8841;-60.1113;-60.8488;-61.8592;-0.0223144;-0.00323949;1.89844;3.46094;8.23438;0;1.71;2.33;2.19;0;0;0
466;9804;-34312;6912;26318;-34566;1573218442452081;0.016668;0.785869262;0.617681912;4.14509;4.70013;6.1665;-0.0622239;0.0675402;10.2258;-29.2141;-2.34497;-15.7447;-59.8841;-60.1113;-60.8488;-61.8592;-0.0223144;-0.00323949;1.89844;3.46094;8.23438;0;1.71;2.33;2.19;0;0;0
462;9878;-34400;6908;26000;-34548;1573218442471765;0.016668;0.785869262;0.617681912;4.14509;4.70013;6.1665;-0.0622239;0.0675402;10.2258;-29.2141;-2.34497;-15.7447;-59.8841;-60.1113;-60.8488;-61.8592;-0.0223144;-0.00323949;1.89844;3.46094;8.23438;0;1.71;2.33;2.19;0;0;0
492;9936;-34346;6790;25998;-34562;1573218442491883;0.016668;0.785869262;0.617681912;4.14509;4.70013;6.1665;-0.0622239;0.0675402;10.2258;-29.2141;-2.34497;-15.7447;-59.8841;-60.1113;-60.8488;-61.8592;-0.0223144;-0.00323949;1.89844;3.46094;8.23438;0;1.71;2.33;2.19;0;0;0
522;9960;-34312;6840;25792;-34464;1573218442511780;0.016668;0.785869262;0.617681912;4.14509;4.70013;6.1665;-0.0622239;0.0675402;10.2258;-29.2141;-2.34497;-15.7447;-59.8841;-60.1113;-60.8488;-61.8592;-0.0223144;-0.00323949;1.89844;3.46094;8.23438;0;1.71;2.33;2.19;0;0;0
468;9890;-34186;6820;25826;-34446;1573218442531883;0.016668;0.785869262;0.617681912;4.14509;4.70013;6.1665;-0.0622239;0.0675402;10.2258;-29.2141;-2.34497;-15.7447;-59.8841;-60.1113;-60.8488;-61.8592;-0.0223144;-0.00323949;1.89844;3.46094;8.23438;0;1.71;2.33;2.19;0;0;0
548;10024;-34216;6820;25794;-34446;1573218442551775;0.016668;0.785869262;0.617681912;4.14509;4.70013;6.1665;-0.0622239;0.0675402;10.2258;-29.2141;-2.34497;-15.7447;-59.8841;-60.1113;-60.8488;-61.8592;-0.0223144;-0.00323949;1.89844;3.46094;8.23438;0;1.71;2.33;2.19;0;0;0
518;9954;-34280;6742;25974;-34502;1573218442571777;0.016668;0.785869262;0.617681912;4.14509;4.70013;6.1665;-0.0622239;0.0675402;10.2258;-29.2141;-2.34497;-15.7447;-59.8841;-60.1113;-60.8488;-61.8592;-0.0223144;-0.00323949;1.89844;3.46094;8.23438;0;1.71;2.33;2.19;0;0;0
566;10024;-34264;6744;25836;-34484;1573218442591770;0.016668;0.785869262;0.617681912;4.14509;4.69972;6.1665;-0.0622239;0.0675402;10.2258;-29.2141;-2.34497;-15.7447;-59.8841;-60.1113;-60.8488;-61.8592;-0.0223144;-0.00323949;1.89844;3.46094;8.23438;0;1.71;2.33;2.19;0;0;0
608;10050;-34178;6704;25746;-34586;1573218442611797;0.016668;0.785869262;0.617681912;4.14509;4.69972;6.1665;-0.0622239;0.0675402;10.2258;-29.2141;-2.34497;-15.7447;-59.8841;-60.1113;-60.8488;-61.8592;-0.0223144;-0.00323949;1.89844;3.46094;8.23438;0;1.71;2.33;2.19;0;0;0
592;10060;-34170;6756;25896;-34620;1573218442631802;0.016668;0.785869262;0.617681912;4.14509;4.69972;6.1665;-0.0622239;0.0675402;10.2258;-29.2141;-2.34497;-15.7447;-59.8841;-60.1113;-60.8488;-61.8592;-0.0223144;-0.00323949;1.89844;3.46094;8.23438;0;1.71;2.33;2.19;0;0;0
548;10026;-34158;6756;25844;-34596;1573218442651893;0.016668;0.785869262;0.617681912;4.14509;4.69972;6.16678;-0.0632788;0.067835;10.2258;-29.2141;-2.34497;-15.5732;-59.8841;-60.1113;-60.8488;-61.8592;-0.0137319;-0.00323949;1.89844;3.46094;8.23438;0;1.71;2.33;2.19;0;0;0
538;9974;-34138;6704;25734;-34462;1573218442671784;0.016668;0.785869262;0.617681912;4.14509;4.69972;6.16678;-0.0632788;0.067835;10.2258;-29.2141;-2.34497;-15.5732;-98.7336;-60.1113;-99.0465;-98.8406;-0.0137319;-0.00323949;1.89844;3.46094;8.23438;0;1.71;2.33;2.19;0;0;0
524;9996;-34156;6662;25880;-34554;1573218442691760;0.016668;0.785869262;0.617681912;4.14509;4.69972;6.16678;-0.0632788;0.067835;10.2258;-29.2141;-2.34497;-15.5732;-98.7336;-96.7101;-99.0465;-98.8406;-0.0137319;-0.00323949;1.89844;3.46094;8.23438;0;1.71;2.33;2.19;0;0;0
546;10082;-34280;6612;25784;-34494;1573218442711755;0.016668;0.785869262;0.617681912;4.14509;4.69972;6.16678;-0.0632788;0.067835;10.2258;-29.2141;-2.34497;-15.5732;-98.7336;-96.7101;-99.0465;-98.8406;-0.0137319;-0.00323949;1.89844;3.46094;8.23438;0;1.71;2.33;2.19;0;0;0
564;10012;-34236;6664;25900;-34426;1573218442731753;0.016668;0.785869262;0.617681912;4.14509;4.69972;6.16678;-0.0632788;0.067835;10.2258;-29.2141;-2.34497;-15.5732;-98.7336;-96.7101;-99.0465;-98.8406;-0.0137319;-0.00833902;1.89844;3.46094;8.23438;0;1.71;2.33;2.19;0;0;0
612;9998;-34198;6660;25778;-34450;1573218442751451;0.016668;0.785869262;0.617681912;4.14509;4.69972;6.16678;-0.0632788;0.067835;10.2258;-29.2141;-2.34497;-15.5732;-98.7336;-96.7101;-99.0465;-98.8406;-0.0137319;-0.00833902;1.89844;3.46094;8.23438;0;1.71;2.33;2.19;0;0;0
594;9976;-34158;6660;25910;-34456;1573218442771778;0.016668;0.785869262;0.617681912;4.14509;4.69972;6.16678;-0.0632788;0.067835;10.2258;-29.2141;-2.34497;-15.5732;-98.7336;-96.7101;-99.0465;-98.8406;-0.0137319;-0.00833902;1.89844;3.46094;8.23438;0;1.71;2.33;2.19;0;0;0
566;9926;-34138;6654;25916;-34438;1573218442791797;0.016668;0.785869262;0.617681912;4.14509;4.69972;6.16678;-0.0632788;0.067835;10.2258;-29.2141;-2.34497;-15.5732;-98.7336;-96.7101;-99.0465;-98.8406;-0.0137319;-0.00833902;1.89844;3.46094;8.23438;0;1.71;2.33;2.19;0;0;0
622;9978;-34150;6620;26082;-34514;1573218442811873;0.016668;0.785869262;0.617681912;4.14509;4.69972;6.16678;-0.0632788;0.067835;10.2258;-29.2141;-2.34497;-15.5732;-98.7336;-96.7101;-99.0465;-98.8406;-0.0137319;-0.00833902;1.89844;3.46094;8.23438;0;1.71;2.33;2.19;0;0;0
578;9984;-34120;6580;25736;-34542;1573218442831834;0.016668;0.785869262;0.617681912;4.14509;4.69972;6.16678;-0.0632788;0.067835;10.2258;-29.2141;-2.34497;-15.5732;-98.7336;-96.7101;-99.0465;-98.8406;-0.0137319;-0.00833902;1.89844;3.46094;8.23438;0;1.71;2.33;2.19;0;0;0
620;10042;-34174;6624;25890;-34568;1573218442851798;0.016668;0.785869262;0.617681912;4.14509;4.69972;6.16678;-0.0632788;0.067835;10.2258;-29.2141;-2.34497;-15.5732;-98.7336;-96.7101;-99.0465;-98.8406;-0.0137319;-0.00833902;1.89844;3.46094;8.23438;0;1.71;2.33;2.19;0;0;0
608;9964;-34324;6590;25970;-34584;1573218442871971;0.016668;0.785869262;0.617681912;4.14509;4.69972;6.16678;-0.0632788;0.067835;10.2258;-29.2141;-2.34497;-15.5732;-98.7336;-96.7101;-99.0465;-98.8406;-0.0137319;-0.00833902;1.89844;3.46094;8.23438;0;1.71;2.33;2.19;0;0;0
546;10028;-34262;6664;25828;-34574;1573218442891766;0.016668;0.785869262;0.617681912;4.14509;4.70925;6.16705;-0.0643745;0.0680198;10.2258;-29.2141;-2.34497;-15.5732;-98.7336;-96.7101;-99.0465;-98.8406;-0.0137319;-0.00833902;1.89844;3.46094;8.23438;0;1.71;2.33;2.19;0;0;0
478;9974;-34248;6612;26100;-34502;1573218442911895;0.016668;0.785869262;0.617681912;4.14509;4.70925;6.16705;-0.0643745;0.0680198;10.2258;-29.2141;-2.34497;-15.5732;-98.7336;-96.7101;-99.0465;-98.8406;-0.0137319;-0.00833902;1.89844;3.46094;8.23438;0;1.71;2.33;2.19;0;0;0
516;9976;-34222;6616;25960;-34456;1573218442931790;0.016668;0.785869262;0.617681912;4.14509;4.70925;6.16705;-0.0643745;0.0680198;10.2258;-29.2141;-2.34497;-15.5732;-98.7336;-96.7101;-99.0465;-98.8406;-0.0137319;-0.00833902;1.89844;3.46094;8.23438;0;1.71;2.33;2.19;0;0;0
454;9982;-34154;6604;25960;-34448;1573218442951950;0.016668;0.785869262;0.617681912;4.14509;4.70925;6.16705;-0.0643745;0.0680198;10.2258;-29.2141;-2.34497;-15.5732;-98.7336;-96.7101;-99.0465;-98.8406;-0.0137319;-0.00833902;1.89844;3.46094;8.23438;0;1.71;2.33;2.19;0;0;0
466;9980;-34124;6580;25770;-34490;1573218442971763;0.016668;0.785869262;0.617681912;4.14509;4.70925;6.16705;-0.0643745;0.0680198;10.2258;-29.2141;-2.34497;-15.5732;-98.7336;-96.7101;-99.0465;-98.8406;-0.0137319;-0.00833902;1.89844;3.46094;8.23438;0;1.71;2.33;2.19;0;0;0
540;10066;-34206;6574;25906;-34580;1573218442991782;0.016668;0.785869262;0.617681912;4.14509;4.70925;6.16705;-0.0643745;0.0680198;10.2258;-29.2141;-2.34497;-15.5732;-98.7336;-96.7101;-99.0465;-98.8406;-0.0137319;-0.00833902;1.89844;3.46094;8.23438;0;1.71;2.33;2.19;0;0;0
524;9938;-34248;6610;25854;-34528;1573218443011793;0.016668;0.785869262;0.617681912;4.14509;4.70925;6.16705;-0.0643745;0.0680198;10.2258;-29.2141;-2.34497;-15.5732;-98.7336;-96.7101;-99.0465;-98.8406;-0.0137319;-0.00833902;1.89844;3.46094;8.23438;0;1.71;2.33;2.19;0;0;0
516;10018;-34216;6626;25848;-34406;1573218443031835;0.016668;0.785869262;0.617681912;4.14509;4.70925;6.16705;-0.0643745;0.0680198;10.2258;-29.2141;-2.34497;-15.5732;-98.7336;-96.7101;-99.0465;-98.8406;-0.0137319;-0.00833902;1.89844;3.46094;8.23438;0;1.71;2.33;2.19;0;0;0
536;9928;-34244;6576;25860;-34460;1573218443051794;0.016668;0.785869262;0.617681912;4.14509;4.70925;6.16705;-0.0643745;0.0680198;10.2258;-29.2141;-2.34497;-15.5732;-98.7336;-96.7101;-99.0465;-98.8406;-0.0137319;-0.00833902;1.89844;3.46094;8.23438;0;1.71;2.33;2.19;0;0;0
544;9920;-34254;6632;25980;-34568;1573218443071757;0.016668;0.785869262;0.617681912;4.14509;4.70925;6.16705;-0.0643745;0.0680198;10.2258;-29.2141;-2.34497;-15.5732;-98.7336;-96.7101;-99.0465;-98.8406;-0.0137319;-0.00833902;1.89844;3.46094;8.23438;0;1.71;2.33;2.19;0;0;0
568;9942;-34256;6590;26026;-34574;1573218443091756;0.016668;0.785869262;0.617681912;4.14509;4.70925;6.16705;-0.0643745;0.0680198;10.2258;-29.2141;-2.34497;-15.5732;-98.7336;-96.7101;-99.0465;-98.8406;-0.0137319;-0.00833902;1.89844;3.46094;8.23438;0;1.71;2.33;2.19;0;0;0
572;9996;-34244;6592;25808;-34574;1573218443111933;0.016668;0.785869262;0.617681912;4.14509;4.70925;6.16734;-0.065521;0.0683131;10.2258;-29.2141;-2.34497;-15.5732;-98.7336;-96.7101;-99.0465;-98.8406;-0.0137319;-0.00833902;1.89844;3.46094;8.23438;0;1.71;2.33;2.19;0;0;0
618;10018;-34172;6592;25932;-34484;1573218443131771;0.016668;0.785869262;0.617681912;4.14509;4.70925;6.16734;-0.065521;0.0683131;10.2258;-29.2141;-2.34497;-15.5732;-98.7336;-96.7101;-99.0465;-98.8406;-0.0137319;-0.00833902;1.89844;3.46094;8.23438;0;1.71;2.33;2.19;0;0;0
558;9908;-34118;6596;25858;-34442;1573218443151813;0.016668;0.785869262;0.617681912;4.14509;4.70844;6.16734;-0.065521;0.0683131;16.9644;-50.1926;-2.34497;-15.633;-98.7336;-96.7101;-99.0465;-98.8406;-0.0137319;-0.00833902;1.89844;3.46094;8.23438;0;1.71;2.33;2.19;0;0;0
526;9896;-34090;6616;25810;-34494;1573218443171767;0.016668;0.785869262;0.617681912;4.14509;4.70844;6.16734;-0.065521;0.0683131;16.9644;-50.1926;19.7286;-15.633;-98.7336;-98.4165;-101.049;-98.8406;-0.0137319;-0.00833902;1.89844;3.46094;8.23438;0;1.71;2.18;2.19;0;0;0
506;9832;-34188;6576;26058;-34564;1573218443191883;0.016668;0.785869262;0.617681912;4.14509;4.70844;6.16734;-0.065521;0.0683131;16.9644;-50.1926;19.7286;-15.633;-98.7336;-98.4165;-101.049;-98.8406;-0.0137319;-0.00833902;1.89844;3.46094;8.23438;0;1.71;2.18;2.19;0;0;0
510;9890;-34214;6634;25910;-34508;1573218443211774;0.016668;0.785869262;0.617681912;4.14509;4.70844;6.16734;-0.065521;0.0683131;16.9644;-50.1926;19.7286;-15.633;-98.7336;-98.4165;-101.049;-98.8406;-0.0137319;-0.00833902;1.89844;3.46094;8.23438;0;1.71;2.18;2.19;0;0;0
546;9852;-34254;6558;25868;-34466;1573218443231820;0.016668;0.785869262;0.617681912;4.14509;4.70844;6.16734;-0.065521;0.0683131;16.9644;-50.1926;19.7286;-15.633;-98.7336;-98.4165;-101.049;-98.8406;-0.0137319;-0.00833902;1.89844;3.46094;8.23438;0;1.71;2.18;2.19;0;0;0
552;9904;-34268;6562;25782;-34400;1573218443250896;0.016668;0.785869262;0.617681912;4.14509;4.70844;6.16734;-0.065521;0.0683131;16.9644;-50.1926;19.7286;-15.633;-98.7336;-98.4165;-101.049;-98.8406;-0.0137319;-0.00833902;1.89844;3.46094;8.23438;0;1.71;2.18;2.19;0;0;0
562;9850;-34296;6574;25940;-34388;1573218443270784;0.016668;0.785869262;0.617681912;4.14509;4.70844;6.16734;-0.065521;0.0683131;16.9644;-50.1926;19.7286;-15.633;-98.7336;-98.4165;-101.049;-98.8406;-0.0137319;-0.00833902;1.89844;3.46094;8.23438;0;1.71;2.18;2.19;0;0;0
578;9836;-34270;6578;25982;-34422;1573218443290782;0.016668;0.785869262;0.617681912;4.14509;4.70844;6.16734;-0.065521;0.0683131;16.9644;-50.1926;19.7286;-15.633;-98.7336;-98.4165;-101.049;-98.8406;-0.0137319;-0.00833902;1.89844;3.46094;8.23438;0;1.71;2.18;2.19;0;0;0
628;9792;-34236;6576;25918;-34418;1573218443310813;0.016668;0.785869262;0.617681912;4.13507;4.70844;6.16764;-0.066621;0.0685254;16.9644;-50.1926;19.7286;-15.633;-98.7336;-98.4165;-101.049;-98.8406;-0.0137319;-0.00833902;1.89844;3.46094;8.23438;0;1.71;2.18;2.19;0;0;0
616;9778;-34240;6576;26054;-34484;1573218443330842;0.016668;0.785869262;0.617681912;4.13507;4.70844;6.16764;-0.066621;0.0685254;16.9644;-50.1926;19.7286;-15.633;-98.7336;-98.4165;-101.049;-98.8406;-0.0137319;-0.00833902;1.89844;3.46094;8.23438;0;1.71;2.18;2.19;0;0;0
602;9800;-34306;6562;26158;-34528;1573218443350764;0.016668;0.785869262;0.617681912;4.13507;4.70844;6.16764;-0.066621;0.0685254;16.9644;-50.1926;19.7286;-15.633;-98.7336;-98.4165;-101.049;-98.8406;-0.0137319;-0.00833902;1.89844;3.46094;8.23438;0;1.71;2.18;2.19;0;0;0
688;9786;-34284;6572;25988;-34512;1573218443370768;0.016668;0.785869262;0.617681912;4.13507;4.70844;6.16764;-0.066621;0.0685254;16.9644;-50.1926;19.7286;-15.633;-98.7336;-98.4165;-101.049;-98.8406;-0.0137319;-0.00833902;1.89844;3.46094;8.23438;0;1.71;2.18;2.19;0;0;0
628;9782;-34188;6568;25926;-34474;1573218443390760;0.016668;0.785869262;0.617681912;4.13507;4.70844;6.16764;-0.066621;0.0685254;16.9644;-50.1926;19.7286;-15.633;-98.7336;-98.4165;-101.049;-98.8406;-0.0137319;-0.00833902;1.89844;3.46094;8.23438;0;1.71;2.18;2.19;0;0;0
642;9720;-34198;6600;26152;-34386;1573218443410817;0.016668;0.785869262;0.617681912;4.13507;4.70801;6.16764;-0.066621;0.0685254;16.9644;-50.1926;19.7286;-15.633;-98.7336;-98.4165;-101.049;-98.8406;-0.0137319;-0.00833902;1.89844;3.46094;8.23438;0;1.71;2.18;2.19;0;0;0
614;9628;-34156;6606;26106;-34390;1573218443430763;0.016668;0.785869262;0.617681912;4.13507;4.70801;6.16764;-0.066621;0.0685254;16.9644;-50.1926;19.7286;-15.633;-98.7336;-98.4165;-101.049;-98.8406;-0.0137319;-0.00833902;1.89844;3.46094;8.23438;0;1.71;2.18;2.19;0;0;0
632;9628;-34140;6556;26220;-34394;1573218443450839;0.016668;0.785869262;0.617681912;4.13507;4.70801;6.16764;-0.066621;0.0685254;16.9644;-50.1926;19.7286;-15.633;-98.7336;-98.4165;-101.049;-98.8406;-0.0137319;-0.00833902;1.89844;3.46094;8.23438;0;1.71;2.18;2.19;0;0;0
654;9712;-34130;6492;26152;-34422;1573218443470812;0.016668;0.785869262;0.617681912;4.13507;4.70801;6.16764;-0.066621;0.0685254;16.9644;-50.1926;19.7286;-15.633;-98.7336;-98.4165;-101.049;-98.8406;-0.0137319;-0.00833902;1.89844;3.46094;8.23438;0;1.71;2.18;2.19;0;0;0
670;9612;-34140;6502;26144;-34522;1573218443490767;0.016668;0.785869262;0.617681912;4.13507;4.70801;6.16764;-0.066621;0.0685254;16.9644;-50.1926;19.7286;-15.633;-98.7336;-98.4165;-101.049;-98.8406;-0.0137319;-0.00833902;1.89844;3.46094;8.23438;0;1.71;2.18;2.19;0;0;0
718;9676;-34166;6532;26220;-34546;1573218443510873;0.016668;0.785869262;0.617681912;4.11286;4.70801;6.16801;-0.0676723;0.068717;16.9644;-50.1926;19.7286;-15.633;-98.7336;-98.4165;-101.049;-98.8406;-0.0137319;-0.00833902;1.89844;3.46094;8.23438;0;1.71;2.18;2.19;0;0;0
684;9578;-34118;6480;26002;-34390;1573218443530747;0.016668;0.785869262;0.617681912;4.11286;4.70801;6.16801;-0.0676723;0.068717;16.9644;-50.1926;19.7286;-15.633;-98.7336;-98.4165;-101.049;-98.8406;-0.0137319;-0.00833902;1.89844;3.46094;8.23438;0;1.71;2.18;2.19;0;0;0
748;9590;-34126;6514;26214;-34350;1573218443550797;0.016668;0.785869262;0.617681912;4.11286;4.70801;6.16801;-0.0676723;0.068717;16.9644;-50.1926;19.7286;-15.633;-98.7336;-98.4165;-101.049;-98.8406;-0.0137319;-0.00833902;1.89844;3.46094;8.23438;0;1.71;2.18;2.19;0;0;0
780;9516;-34262;6470;26242;-34394;1573218443570769;0.016668;0.785869262;0.617681912;4.11286;4.70801;6.16801;-0.0676723;0.068717;16.9644;-50.1926;19.7286;-15.633;-98.7336;-98.4165;-101.049;-98.8406;-0.0137319;-0.00833902;1.89844;3.46094;8.23438;0;1.71;2.18;2.19;0;0;0
768;9572;-34264;6516;26204;-34406;1573218443590823;0.016668;0.785869262;0.617681912;4.11286;4.70801;6.16801;-0.0676723;0.068717;16.9644;-50.1926;19.7286;-15.633;-98.7336;-98.4165;-101.049;-98.8406;-0.0137319;-0.00833902;1.89844;3.46094;8.23438;0;1.71;2.18;2.19;0;0;0
790;9564;-34288;6440;26246;-34532;1573218443610801;0.016668;0.785869262;0.617681912;4.11286;4.70801;6.16801;-0.0676723;0.068717;16.9644;-50.1926;19.7286;-15.633;-98.7336;-98.4165;-101.049;-98.8406;-0.0137319;-0.00833902;1.89844;3.46094;8.23438;0;1.71;2.18;2.19;0;0;0
812;9578;-34342;6472;26170;-34506;1573218443630829;0.016668;0.785869262;0.617681912;4.11286;4.70801;6.16801;-0.0676723;0.068717;16.9644;-50.1926;19.7286;-15.633;-98.7336;-98.4165;-101.049;-98.8406;-0.0137319;-0.00833902;1.89844;3.46094;8.23438;0;1.71;2.18;2.19;0;0;0
796;9486;-34302;6482;26202;-34484;1573218443650768;0.016668;0.785869262;0.617681912;4.11286;4.70801;6.16801;-0.0676723;0.068717;16.9644;-50.1926;19.7286;-15.633;-98.7336;-98.4165;-101.049;-98.8406;-0.0137319;-0.00833902;1.89844;3.46094;8.23438;0;1.71;2.18;2.19;0;0;0
748;9488;-34296;6496;26266;-34494;1573218443670801;0.016668;0.785869262;0.617681912;4.11286;4.78726;6.16801;-0.0676723;0.068717;12.791;-62.6319;37.772;-15.7116;-98.8314;-98.6952;-101.401;-101.261;0.00641655;-0.00833902;1.89844;3.46094;8.23438;0;1.71;2.18;2.19;0;0;0
700;9448;-34306;6462;26308;-34402;1573218443690789;0.016668;0.785869262;0.617681912;4.11286;4.78726;6.16801;-0.0676723;0.068717;12.791;-62.6319;37.772;-15.7116;-98.8314;-98.6952;-101.401;-101.261;0.00641655;-0.00582983;1.89844;3.46094;8.23438;0;1.71;2.18;2.02;0;0;0
678;9458;-34276;6472;26252;-34402;1573218443710871;0.016668;0.785869262;0.617681912;4.11286;4.78726;6.16801;-0.0676723;0.068717;12.791;-62.6319;37.772;-15.7116;-98.8314;-98.6952;-101.401;-101.261;0.00641655;-0.00582983;1.89844;3.46094;8.23438;0;1.71;2.18;2.02;0;0;0
718;9438;-34282;6470;26160;-34378;1573218443730778;0.016668;0.785869262;0.617681912;4.10468;4.78726;6.16848;-0.0687215;0.0689144;12.791;-62.6319;37.772;-15.7116;-98.8314;-98.6952;-101.401;-101.261;0.00641655;-0.00582983;1.89844;3.46094;8.23438;0;1.71;2.18;2.02;0;0;0
758;9400;-34308;6430;26184;-34414;1573218443750813;0.016668;0.785869262;0.617681912;4.10468;4.78726;6.16848;-0.0687215;0.0689144;12.791;-62.6319;37.772;-15.7116;-98.8314;-98.6952;-101.401;-101.261;0.00641655;-0.00582983;1.89844;3.46094;8.23438;0;1.71;2.18;2.02;0;0;0
726;9470;-34346;6446;26292;-34486;1573218443770795;0.016668;0.785869262;0.617681912;4.10468;4.78726;6.16848;-0.0687215;0.0689144;12.791;-62.6319;37.772;-15.7116;-98.8314;-98.6952;-101.401;-101.261;0.00641655;-0.00582983;1.89844;3.46094;8.23438;0;1.71;2.18;2.02;0;0;0
738;9404;-34304;6482;26184;-34494;1573218443790864;0.016668;0.785869262;0.617681912;4.10468;4.78726;6.16848;-0.0687215;0.0689144;12.791;-62.6319;37.772;-15.7116;-98.8314;-98.6952;-101.401;-101.261;0.00641655;-0.00582983;1.89844;3.46094;8.23438;0;1.71;2.18;2.02;0;0;0
760;9360;-34316;6438;26350;-34426;1573218443810829;0.016668;0.785869262;0.617681912;4.10468;4.78726;6.16848;-0.0687215;0.0689144;12.791;-62.6319;37.772;-15.7116;-98.8314;-98.6952;-101.401;-101.261;0.00641655;-0.00582983;1.89844;3.46094;8.23438;0;1.71;2.18;2.02;0;0;0
716;9364;-34318;6466;26262;-34364;1573218443830820;0.016668;0.785869262;0.617681912;4.10468;4.78726;6.16848;-0.0687215;0.0689144;12.791;-62.6319;37.772;-15.7116;-98.8314;-98.6952;-101.401;-101.261;0.00641655;-0.00582983;1.89844;3.46094;8.23438;0;1.71;2.18;2.02;0;0;0
704;9392;-34270;6436;26342;-34354;1573218443850872;0.016668;0.785869262;0.617681912;4.10468;4.78726;6.16848;-0.0687215;0.0689144;12.791;-62.6319;37.772;-15.7116;-98.8314;-98.6952;-101.401;-101.261;0.00641655;-0.00582983;1.89844;3.46094;8.23438;0;1.71;2.18;2.02;0;0;0
722;9422;-34324;6470;26218;-34390;1573218443870791;0.016668;0.785869262;0.617681912;4.10468;4.78726;6.16848;-0.0687215;0.0689144;12.791;-62.6319;37.772;-15.7116;-98.8314;-98.6952;-101.401;-101.261;0.00641655;-0.00582983;1.89844;3.46094;8.23438;0;1.71;2.18;2.02;0;0;0
700;9414;-34158;6402;26260;-34404;1573218443890870;0.016668;0.785869262;0.617681912;4.10468;4.78726;6.16848;-0.0687215;0.0689144;12.791;-62.6319;37.772;-15.7116;-98.8314;-98.6952;-101.401;-101.261;0.00641655;-0.00582983;1.89844;3.46094;8.23438;0;1.71;2.18;2.02;0;0;0
642;9368;-34172;6472;26132;-34382;1573218443910764;0.016668;0.785869262;0.617681912;4.10468;4.78726;6.16848;-0.0687215;0.0689144;12.791;-62.6319;37.772;-15.7116;-98.8314;-98.6952;-101.401;-101.261;0.00641655;-0.00582983;1.89844;3.46094;8.23438;0;1.71;2.18;2.02;0;0;0
648;9312;-34202;6504;26142;-34454;1573218443930831;0.016668;0.785869262;0.617681912;4.10468;4.78687;6.16848;-0.0687215;0.0689144;12.791;-62.6319;37.772;-15.7116;-98.8314;-98.6952;-101.401;-101.261;0.00641655;-0.00582983;1.89844;3.46094;8.23438;0;1.71;2.18;2.02;0;0;0
622;9318;-34218;6396;26248;-34428;1573218443950750;0.016668;0.785869262;0.617681912;4.10468;4.78687;6.1696;-0.0705348;0.0691077;12.791;-62.6319;37.772;-15.7116;-98.8314;-98.6952;-101.401;-101.261;0.00641655;-0.00582983;1.89844;3.46094;8.23438;0;1.71;2.18;2.02;0;0;0
640;9278;-34290;6478;26310;-34482;1573218443970784;0.016668;0.785869262;0.617681912;4.10468;4.78687;6.1696;-0.0705348;0.0691077;12.791;-62.6319;37.772;-15.7116;-98.8314;-98.6952;-101.401;-101.261;0.00641655;-0.00582983;1.89844;3.46094;8.23438;0;1.71;2.18;2.02;0;0;0
660;9278;-34340;6452;26312;-34504;1573218443990764;0.016668;0.785869262;0.617681912;4.10468;4.78687;6.1696;-0.0705348;0.0691077;12.791;-62.6319;37.772;-15.7116;-98.8314;-98.6952;-101.401;-101.261;0.00641655;-0.00582983;1.89844;3.46094;8.23438;0;1.71;2.18;2.02;0;0;0
674;9248;-34374;6496;26196;-34442;1573218444010757;0.016668;0.785869262;0.617681912;4.10468;4.78687;6.1696;-0.0705348;0.0691077;12.791;-62.6319;37.772;-15.7116;-98.8314;-98.6952;-101.401;-101.261;0.00641655;-0.00582983;1.89844;3.46094;8.23438;0;1.71;2.18;2.02;0;0;0
708;9296;-34302;6486;26220;-34400;1573218444030778;0.016668;0.785869262;0.617681912;4.10468;4.78687;6.1696;-0.0705348;0.0691077;12.791;-62.6319;37.772;-15.7116;-98.8314;-98.6952;-101.401;-101.261;0.00641655;-0.00582983;1.89844;3.46094;8.23438;0;1.71;2.18;2.02;0;0;0
720;9134;-34312;6480;26444;-34356;1573218444050761;0.016668;0.785869262;0.617681912;4.10468;4.78687;6.1696;-0.0705348;0.0691077;12.791;-62.6319;37.772;-15.7116;-98.8314;-98.6952;-101.401;-101.261;0.00641655;-0.00582983;1.89844;3.46094;8.23438;0;1.71;2.18;2.02;0;0;0
666;9136;-34296;6434;26266;-34314;1573218444070880;0.016668;0.785869262;0.617681912;4.10468;4.78687;6.1696;-0.0705348;0.0691077;12.791;-62.6319;37.772;-15.7116;-98.8314;-98.6952;-101.401;-101.261;0.00641655;-0.00582983;1.89844;3.46094;8.23438;0;1.71;2.18;2.02;0;0;0
684;9130;-34168;6406;26292;-34344;1573218444090772;0.016668;0.785869262;0.617681912;4.10468;4.78687;6.1696;-0.0705348;0.0691077;12.791;-62.6319;37.772;-15.7116;-98.8314;-98.6952;-101.401;-101.261;0.00641655;-0.00582983;1.89844;3.46094;8.23438;0;1.71;2.18;2.02;0;0;0
742;9096;-34156;6476;26338;-34472;1573218444110787;0.016668;0.785869262;0.617681912;4.10468;4.78687;6.1696;-0.0705348;0.0691077;12.791;-62.6319;37.772;-15.7116;-98.8314;-98.6952;-101.401;-101.261;0.00641655;-0.00582983;1.89844;3.46094;8.23438;0;1.71;2.18;2.02;0;0;0
724;9108;-34218;6430;26298;-34480;1573218444130769;0.016668;0.785869262;0.617681912;4.10468;4.78687;6.17054;-0.071487;0.069211;12.791;-62.6319;37.772;-15.7116;-98.8314;-98.6952;-101.401;-101.261;0.00641655;-0.00582983;1.89844;3.46094;8.23438;0;1.71;2.18;2.02;0;0;0
738;9074;-34188;6382;26310;-34406;1573218444150737;0.016668;0.785869262;0.617681912;4.10468;4.78687;6.17054;-0.071487;0.069211;16.0523;-62.6319;50.3967;-15.626;-98.8314;-98.6952;-101.401;-101.261;0.00641655;-0.00582983;1.89844;3.46094;8.23438;0;1.71;2.18;2.02;0;0;0
784;9050;-34192;6414;26242;-34304;1573218444170763;0.016668;0.785869262;0.617681912;4.10468;4.78687;6.17054;-0.071487;0.069211;16.0523;-71.0145;50.3967;-15.626;-98.8314;-98.6952;-101.401;-101.261;0.00641655;-0.00582983;1.89844;3.46094;8.23438;0;1.71;2.18;2.02;0;0;0
692;8922;-34214;6420;26480;-34374;1573218444190797;0.016668;0.785869262;0.617681912;4.10468;4.78687;6.17054;-0.071487;0.069211;16.0523;-71.0145;50.3967;-15.626;-98.8314;-98.6952;-101.401;-101.261;0.00641655;-0.00582983;1.89844;3.46094;8.23438;0;1.71;2.18;2.02;0;0;0
720;8940;-34178;6400;26436;-34448;1573218444210755;0.016668;0.785869262;0.617681912;4.10468;4.78591;6.17054;-0.071487;0.069211;16.0523;-71.0145;50.3967;-15.626;-98.8314;-98.6952;-101.401;-101.261;0.00641655;-0.00582983;1.89844;3.46094;8.23438;0;1.71;2.18;2.02;0;0;0
702;8914;-34192;6404;26410;-34494;1573218444230834;0.016668;0.785869262;0.617681912;4.10468;4.78591;6.17054;-0.071487;0.069211;16.0523;-71.0145;50.3967;-15.626;-98.8314;-98.6952;-101.401;-101.261;0.00641655;-0.00582983;1.89844;3.46094;8.23438;0;1.71;2.18;2.02;0;0;0
744;8908;-34264;6436;26444;-34418;1573218444250768;0.016668;0.785869262;0.617681912;4.10468;4.78591;6.17054;-0.071487;0.069211;16.0523;-71.0145;50.3967;-15.626;-98.8314;-98.6952;-101.401;-101.261;0.00641655;-0.00582983;1.89844;3.46094;8.23438;0;1.71;2.18;2.02;0;0;0
728;8838;-34358;6380;26246;-34338;1573218444270802;0.016668;0.785869262;0.617681912;4.10468;4.78591;6.17054;-0.071487;0.069211;16.0523;-71.0145;50.3967;-15.626;-98.8314;-98.6952;-101.401;-101.261;0.00641655;-0.00582983;1.89844;3.46094;8.23438;0;1.71;2.18;2.02;0;0;0
708;8810;-34320;6430;26564;-34368;1573218444290812;0.016668;0.785869262;0.617681912;4.10468;4.78591;6.17054;-0.071487;0.069211;16.0523;-71.0145;50.3967;-15.626;-98.8314;-98.6952;-101.401;-101.261;0.00641655;-0.00582983;1.89844;3.46094;8.23438;0;1.71;2.18;2.02;0;0;0
756;8730;-34292;6408;26552;-34436;1573218444310770;0.016668;0.785869262;0.617681912;4.10468;4.78591;6.17054;-0.071487;0.069211;16.0523;-71.0145;50.3967;-15.626;-98.8314;-98.6952;-101.401;-101.261;0.00641655;-0.00582983;1.89844;3.46094;8.23438;0;1.71;2.18;2.02;0;0;0
724;8724;-34288;6340;26608;-34484;1573218444330789;0.016668;0.785869262;0.617681912;4.10468;4.78591;6.17054;-0.071487;0.069211;16.0523;-71.0145;50.3967;-15.626;-98.8314;-98.6952;-101.401;-101.261;0.00641655;-0.00582983;1.89844;3.46094;8.23438;0;1.71;2.18;2.02;0;0;0
808;8752;-34298;6354;26400;-34418;1573218444350777;0.016668;0.785869262;0.617681912;4.10468;4.78591;6.17054;-0.071487;0.069211;16.0523;-71.0145;50.3967;-15.626;-98.8314;-98.6952;-101.401;-101.261;0.00641655;-0.00582983;1.89844;3.46094;8.23438;0;1.71;2.18;2.02;0;0;0
842;8704;-34316;6338;26640;-34342;1573218444370764;0.016668;0.785869262;0.617681912;4.08093;4.78591;6.17147;-0.0723434;0.0692099;16.0523;-71.0145;50.3967;-15.626;-98.8314;-98.6952;-101.401;-101.261;0.00641655;-0.00582983;1.89844;3.46094;8.23438;0;1.71;2.18;2.02;0;0;0
782;8700;-34300;6358;26410;-34408;1573218444390744;0.016668;0.785869262;0.617681912;4.08093;4.78591;6.17147;-0.0723434;0.0692099;16.0523;-71.0145;50.3967;-15.626;-98.8314;-98.6952;-101.401;-101.261;0.00641655;-0.00582983;1.89844;3.46094;8.23438;0;1.71;2.18;2.02;0;0;0
842;8704;-34316;6354;26514;-34456;1573218444410848;0.016668;0.785869262;0.617681912;4.08093;4.78591;6.17147;-0.0723434;0.0692099;16.0523;-71.0145;50.3967;-15.626;-98.8314;-98.6952;-101.401;-101.261;0.00641655;-0.00582983;1.89844;3.46094;8.23438;0;1.71;2.18;2.02;0;0;0
790;8696;-34388;6324;26504;-34466;1573218444430926;0.016668;0.785869262;0.617681912;4.08093;4.78591;6.17147;-0.0723434;0.0692099;16.0523;-71.0145;50.3967;-15.626;-98.8314;-98.6952;-101.401;-101.261;0.00641655;-0.00582983;1.89844;3.46094;8.23438;0;1.71;2.18;2.02;0;0;0
718;8690;-34352;6338;26524;-34390;1573218444450777;0.016668;0.785869262;0.617681912;4.08093;4.78591;6.17147;-0.0723434;0.0692099;16.0523;-71.0145;50.3967;-15.626;-98.8314;-98.6952;-101.401;-101.261;0.00641655;-0.00582983;1.89844;3.46094;8.23438;0;1.71;2.18;2.02;0;0;0
748;8678;-34396;6310;26592;-34388;1573218444470803;0.022224;0.785869262;0.617681912;4.08093;4.78567;6.17147;-0.0723434;0.0692099;16.0523;-71.0145;50.3967;-15.626;-98.8314;-98.6952;-101.401;-101.261;0.00641655;-0.00582983;1.89844;3.46094;8.23438;0;1.71;2.18;2.02;0;0;0
