Front_X;Front_Y;Front_Z;Back_X;Back_Y;Back_Z;Timestamp;SpeedShip;Latitude;Longitude;Depth;DistToFloor;Heading;Pitch;Roll;M_UP;M_Down;M_Right;M_Left;VertForvUp;VertForvDown;VertBackUp;VertBackDown;GorizForw;GorizBack;Bat1_50_I;Bat2_50_I;Bat3_50_I;Bat4_50_I;Bat1_27_I;Bat2_27_I;Bat3_27_I;Bat4_27_I;SpeedShipEML;EmiErrorFlag
1320;8648;-34496;6456;22402;-34416;1573218676038808;0.327804;0.785874261;0.617694104;3.92101;4.512;6.05017;-0.130823;0.0627131;5.39381;-10.6555;16.8977;0.0110105;-0.00167904;0.0278071;-0.00798948;0.0018975;-0.00563009;0.00730289;1.59375;2.04688;3.55469;0;1.74;2.13;1.99;0;0;0
1272;8708;-34464;6450;22482;-34424;1573218676058837;0.327804;0.785874261;0.617694104;3.92101;4.512;6.05017;-0.130823;0.0627131;5.39381;-10.6555;16.8977;0.0110105;-0.00167904;0.0278071;-0.00798948;0.0018975;-0.00563009;0.00730289;1.59375;2.04688;3.55469;0;1.74;2.13;1.99;0;0;0
1224;8722;-34594;6374;22502;-34550;1573218676078808;0.327804;0.785874261;0.617694104;3.92101;4.512;6.05017;-0.130823;0.0627131;5.39381;-10.6555;16.8977;0.0110105;-0.00167904;0.0278071;-0.00798948;0.0018975;-0.00563009;0.00730289;1.59375;2.04688;3.55469;0;1.74;2.13;1.99;0;0;0
1248;8722;-34590;6434;22574;-34574;1573218676098870;0.327804;0.785874261;0.617694104;3.92101;4.512;6.05017;-0.130823;0.0627131;5.39381;-10.6555;16.8977;0.0110105;-0.00167904;0.0278071;-0.00798948;0.0018975;-0.00563009;0.00730289;1.59375;2.04688;3.55469;0;1.74;2.13;1.99;0;0;0
1338;8686;-34580;6488;22620;-34506;1573218676118819;0.327804;0.785874261;0.617694104;3.90963;4.512;6.05063;-0.131081;0.0640192;5.39381;-10.6555;16.8977;0.0110105;-0.00167904;0.0278071;-0.00798948;0.0018975;-0.00563009;0.00730289;1.59375;2.04688;3.55469;0;1.74;2.13;1.99;0;0;0
1246;8714;-34606;6476;22458;-34444;1573218676138834;0.327804;0.785874261;0.617694104;3.90963;4.512;6.05063;-0.131081;0.0640192;5.39381;-10.6555;16.8977;0.0110105;-0.00167904;0.0278071;-0.00798948;0.0018975;-0.00563009;0.00730289;1.59375;2.04688;3.55469;0;1.74;2.13;1.99;0;0;0
1172;8722;-34564;6428;22690;-34408;1573218676158815;0.322248;0.785874261;0.617694104;3.90963;4.5111;6.05063;-0.131081;0.0640192;5.39381;-10.6555;16.8977;0.0110105;-0.00167904;0.0278071;-0.00798948;0.0018975;-0.00563009;0.00730289;1.59375;2.04688;3.55469;0;1.74;2.13;1.99;0;0;0
1258;8772;-34518;6416;22654;-34424;1573218676178805;0.322248;0.785874261;0.617694104;3.90963;4.5111;6.05063;-0.131081;0.0640192;5.39381;-18.6875;18.4214;-15.6445;-0.00167904;0.0278071;97.5938;0.0018975;-9.72659;0.00730289;9.125;11.3906;14.5859;0;1.68;2.27;2.16;0;0;0
1316;8708;-34528;6464;22636;-34460;1573218676198805;0.322248;0.785874261;0.617694104;3.90963;4.5111;6.05063;-0.131081;0.0640192;5.53326;-18.6875;18.4214;-15.6445;102.649;102.787;97.5938;0.0018975;-9.72659;0.00730289;9.125;11.3906;14.5859;0;1.68;2.27;2.16;0;0;0
1272;8770;-34438;6532;22544;-34558;1573218676218813;0.322248;0.785874261;0.617694104;3.90963;4.5111;6.05063;-0.131081;0.0640192;5.53326;-18.6875;18.4214;-15.6445;102.649;102.787;97.5938;97.6106;-9.72659;9.66065;9.125;11.3906;14.5859;0;1.68;2.27;2.16;0;0;0
1300;8728;-34460;6434;22672;-34518;1573218676238849;0.322248;0.785874261;0.617694104;3.90963;4.5111;6.05063;-0.131081;0.0640192;5.53326;-18.6875;18.4214;-15.6445;102.649;102.787;97.5938;97.6106;-9.72659;9.66065;9.125;11.3906;14.5859;0;1.68;2.27;2.16;0;0;0
1282;8736;-34474;6502;22620;-34394;1573218676258804;0.322248;0.785874261;0.617694104;3.90963;4.5111;6.05063;-0.131081;0.0640192;5.53326;-18.6875;18.4214;-15.6445;102.649;102.787;97.5938;97.6106;-9.72659;9.66065;9.125;11.3906;14.5859;0;1.68;2.27;2.16;0;0;0
1338;8692;-34464;6492;22670;-34446;1573218676278820;0.322248;0.785874261;0.617694104;3.90963;4.5111;6.05063;-0.131081;0.0640192;5.53326;-18.6875;18.4214;-15.6445;102.649;102.787;97.5938;97.6106;-9.72659;9.66065;9.125;11.3906;14.5859;0;1.68;2.27;2.16;0;0;0
1422;8730;-34460;6528;22476;-34552;1573218676298799;0.322248;0.785874261;0.617694104;3.90963;4.5111;6.05063;-0.131081;0.0640192;5.53326;-18.6875;18.4214;-15.6445;102.649;102.787;97.5938;97.6106;-9.72659;9.66065;9.125;11.3906;14.5859;0;1.68;2.27;2.16;0;0;0
1366;8774;-34504;6528;22642;-34566;1573218676318922;0.322248;0.785874261;0.617694104;3.90404;4.5111;6.05102;-0.131165;0.065481;5.53326;-18.6875;18.4214;-15.6445;102.649;102.787;97.5938;97.6106;-9.72659;9.66065;9.125;11.3906;14.5859;0;1.68;2.27;2.16;0;0;0
1350;8776;-34534;6448;22548;-34502;1573218676338809;0.322248;0.785874261;0.617694104;3.90404;4.5111;6.05102;-0.131165;0.065481;5.53326;-18.6875;18.4214;-15.6445;102.649;102.787;97.5938;97.6106;-9.72659;9.66065;9.125;11.3906;14.5859;0;1.68;2.27;2.16;0;0;0
1374;8760;-34506;6540;22644;-34434;1573218676358935;0.322248;0.785874261;0.617694104;3.90404;4.5111;6.05102;-0.131165;0.065481;5.53326;-18.6875;18.4214;-15.6445;102.649;102.787;97.5938;97.6106;-9.72659;9.66065;9.125;11.3906;14.5859;0;1.68;2.27;2.16;0;0;0
1426;8728;-34548;6582;22458;-34446;1573218676378831;0.322248;0.785874261;0.617694104;3.90404;4.5111;6.05102;-0.131165;0.065481;5.53326;-18.6875;18.4214;-15.6445;102.649;102.787;97.5938;97.6106;-9.72659;9.66065;9.125;11.3906;14.5859;0;1.68;2.27;2.16;0;0;0
1386;8784;-34522;6604;22492;-34438;1573218676398793;0.322248;0.785874261;0.617694104;3.90404;4.5111;6.05102;-0.131165;0.065481;5.53326;-18.6875;18.4214;-15.6445;102.649;102.787;97.5938;97.6106;-9.72659;9.66065;9.125;11.3906;14.5859;0;1.68;2.27;2.16;0;0;0
1324;8808;-34472;6488;22386;-34492;1573218676418784;0.311136;0.785874261;0.617694104;3.90404;4.39198;6.05102;-0.131165;0.065481;5.53326;-18.6875;18.4214;-15.6445;102.649;102.787;97.5938;97.6106;-9.72659;9.66065;9.125;11.3906;14.5859;0;1.68;2.27;2.16;0;0;0
1364;8826;-34414;6464;22426;-34494;1573218676438899;0.311136;0.785874261;0.617694104;3.90404;4.39198;6.05102;-0.131165;0.065481;5.53326;-18.6875;18.4214;-15.6445;102.649;102.787;97.5938;97.6106;-9.72659;9.66065;9.125;11.3906;14.5859;0;1.68;2.27;2.16;0;0;0
1390;8842;-34486;6512;22172;-34436;1573218676458843;0.311136;0.785874261;0.617694104;3.90404;4.39198;6.05102;-0.131165;0.065481;5.53326;-18.6875;18.4214;-15.6445;102.649;102.787;97.5938;97.6106;-9.72659;9.66065;9.125;11.3906;14.5859;0;1.68;2.27;2.16;0;0;0
1428;9022;-34498;6370;21850;-34324;1573218676478805;0.311136;0.785874261;0.617694104;3.90404;4.39198;6.05102;-0.131165;0.065481;5.53326;-18.6875;18.4214;-15.6445;102.649;102.787;97.5938;97.6106;-9.72659;9.66065;9.125;11.3906;14.5859;0;1.68;2.27;2.16;0;0;0
1406;9082;-34476;6246;21626;-34244;1573218676498792;0.311136;0.785874261;0.617694104;3.90404;4.39198;6.05102;-0.131165;0.065481;5.53326;-18.6875;18.4214;-15.6445;102.649;102.787;97.5938;97.6106;-9.72659;9.66065;9.125;11.3906;14.5859;0;1.68;2.27;2.16;0;0;0
1392;9220;-34446;6054;21554;-34166;1573218676518799;0.311136;0.785874261;0.617694104;3.90404;4.39198;6.05102;-0.131165;0.065481;5.53326;-18.6875;18.4214;-15.6445;102.649;102.787;97.5938;97.6106;-9.72659;9.66065;9.125;11.3906;14.5859;0;1.68;2.27;2.16;0;0;0
1546;9344;-34410;5980;21232;-34184;1573218676538802;0.311136;0.785874261;0.617694104;3.90404;4.39198;6.05141;-0.13115;0.0669574;5.53326;-18.6875;18.4214;-15.6445;102.649;102.787;97.5938;97.6106;-9.72659;9.66065;9.125;11.3906;14.5859;0;1.68;2.27;2.16;0;0;0
1552;9412;-34406;5914;21028;-34226;1573218676558806;0.311136;0.785874261;0.617694104;3.90404;4.39198;6.05141;-0.13115;0.0669574;5.53326;-18.6875;18.4214;-15.6445;102.649;102.787;97.5938;97.6106;-9.72659;9.66065;9.125;11.3906;14.5859;0;1.68;2.27;2.16;0;0;0
1626;9512;-34318;5822;20810;-34128;1573218676578874;0.311136;0.785874261;0.617694104;3.90404;4.39198;6.05141;-0.13115;0.0669574;0.0389862;-18.6875;18.4214;-15.6445;102.649;102.787;97.5938;97.6106;-9.72659;9.66065;9.125;11.3906;14.5859;0;1.68;2.27;2.16;0;0;0
1666;9502;-34328;5774;20672;-34008;1573218676598796;0.311136;0.785874261;0.617694104;3.90404;4.39198;6.05141;-0.13115;0.0669574;0.0389862;-18.6875;18.4214;-15.6445;102.649;102.787;97.5938;97.6106;-9.72659;9.66065;9.125;11.3906;14.5859;0;1.68;2.27;2.16;0;0;0
1666;9648;-34300;5754;20388;-33972;1573218676618801;0.311136;0.785874261;0.617694104;3.90404;4.39198;6.05141;-0.13115;0.0669574;0.0389862;-31.0983;31.5071;-15.8967;102.582;102.823;97.3414;97.6493;-0.000711563;0.0220148;9.125;11.3906;14.5859;0;1.68;2.27;2.16;0;0;0
1704;9662;-34240;5644;20078;-34028;1573218676638828;0.311136;0.785874261;0.617694104;3.90404;4.39198;6.05141;-0.13115;0.0669574;0.0389862;-31.0983;31.5071;-15.8967;102.582;102.823;97.3414;97.6493;-0.000711563;0.0220148;9.125;11.3906;14.5859;0;1.68;2.27;2.16;0;0;0
1688;9798;-34268;5604;20044;-34002;1573218676658928;0.311136;0.785874261;0.617694104;3.90404;4.39198;6.05141;-0.13115;0.0669574;0.0389862;-31.0983;31.5071;-15.8967;102.582;102.823;97.3414;97.6493;-0.000711563;0.0220148;9.125;11.3906;14.5859;0;1.68;2.27;2.16;0;0;0
1728;9898;-34258;5510;19878;-33916;1573218676678786;0.311136;0.785874261;0.617694104;3.90404;4.39198;6.05141;-0.13115;0.0669574;0.0389862;-31.0983;31.5071;-15.8967;102.582;102.823;97.3414;97.6493;-0.000711563;0.0220148;9.125;11.3906;14.5859;0;1.68;2.27;2.16;0;0;0
1706;9926;-34058;5392;19756;-33792;1573218676698805;0.30558;0.785874261;0.617694104;3.90404;4.39161;6.05141;-0.13115;0.0669574;0.0389862;-31.0983;31.5071;-15.8967;102.582;102.823;97.3414;97.6493;-0.000711563;0.0220148;9.125;11.3906;14.5859;0;1.68;2.27;2.16;0;0;0
1778;10044;-34118;5424;19656;-33864;1573218676718793;0.30558;0.785874261;0.617694104;3.90404;4.39161;6.05141;-0.13115;0.0669574;0.0389862;-31.0983;31.5071;-15.8967;102.582;102.823;97.3414;97.6493;-0.000711563;0.0220148;9.125;11.3906;14.5859;0;1.68;2.27;2.16;0;0;0
1718;10060;-34124;5366;19594;-33886;1573218676738869;0.30558;0.785874261;0.617694104;3.90404;4.39161;6.05141;-0.13115;0.0669574;0.0389862;-31.0983;31.5071;-15.8967;102.582;102.823;97.3414;97.6493;-0.000711563;0.0220148;9.125;11.3906;14.5859;0;1.68;2.27;2.16;0;0;0
1732;10210;-34186;5366;19204;-33866;1573218676758876;0.30558;0.785874261;0.617694104;3.90404;4.39161;6.05169;-0.130935;0.0685424;0.0389862;-31.0983;31.5071;-15.8967;102.582;102.823;97.3414;97.6493;-0.000711563;0.0220148;9.125;11.3906;14.5859;0;1.68;2.27;2.16;0;0;0
1766;10140;-34162;5310;19296;-33730;1573218676778854;0.30558;0.785874261;0.617694104;3.90404;4.39161;6.05169;-0.130935;0.0685424;0.0389862;-31.0983;31.5071;-15.8967;102.582;102.823;97.3414;97.6493;-0.000711563;0.0220148;9.125;11.3906;14.5859;0;1.68;2.27;2.16;0;0;0
1890;10236;-34048;5226;19186;-33714;1573218676798815;0.30558;0.785874261;0.617694104;3.90404;4.39161;6.05169;-0.130935;0.0685424;0.0389862;-31.0983;31.5071;-15.8967;102.582;102.823;97.3414;97.6493;-0.000711563;0.0220148;9.125;11.3906;14.5859;0;1.68;2.27;2.16;0;0;0
1830;10312;-34008;5188;19098;-33738;1573218676818810;0.30558;0.785874261;0.617694104;3.90404;4.39161;6.05169;-0.130935;0.0685424;0.0389862;-31.0983;31.5071;-15.8967;102.582;102.823;97.3414;97.6493;-0.000711563;0.0220148;9.125;11.3906;14.5859;0;1.68;2.27;2.16;0;0;0
1884;10374;-33962;5150;18874;-33780;1573218676838799;0.30558;0.785874261;0.617694104;3.90404;4.39161;6.05169;-0.130935;0.0685424;0.0389862;-31.0983;31.5071;-15.8967;102.582;102.823;97.3414;97.6493;-0.000711563;0.0220148;9.125;11.3906;14.5859;0;1.68;2.27;2.16;0;0;0
1956;10420;-34000;5122;18934;-33724;1573218676858831;0.30558;0.785874261;0.617694104;3.90404;4.39161;6.05169;-0.130935;0.0685424;0.0389862;-31.0983;31.5071;-15.8967;102.582;102.823;97.3414;97.6493;-0.000711563;0.0220148;9.125;11.3906;14.5859;0;1.68;2.27;2.16;0;0;0
1886;10566;-34062;5094;18724;-33640;1573218676878916;0.30558;0.785874261;0.617694104;3.90404;4.39161;6.05169;-0.130935;0.0685424;0.0389862;-31.0983;31.5071;-15.8967;102.582;102.823;97.3414;97.6493;-0.000711563;0.0220148;9.125;11.3906;14.5859;0;1.68;2.27;2.16;0;0;0
1896;10484;-34026;5062;18606;-33566;1573218676898810;0.30558;0.785874261;0.617694104;3.90404;4.39161;6.05169;-0.130935;0.0685424;0.0389862;-31.0983;31.5071;-15.8967;102.582;102.823;97.3414;97.6493;-0.000711563;0.0220148;9.125;11.3906;14.5859;0;1.68;2.27;2.16;0;0;0
1930;10542;-34000;4998;18672;-33522;1573218676918819;0.30558;0.785874261;0.617694104;3.90404;4.39161;6.05169;-0.130935;0.0685424;0.0389862;-31.0983;31.5071;-15.8967;102.582;102.823;97.3414;97.6493;-0.000711563;0.0220148;9.125;11.3906;14.5859;0;1.68;2.27;2.16;0;0;0
1960;10604;-33988;4980;18374;-33526;1573218676938812;0.30558;0.785874261;0.617694104;3.90404;4.39161;6.05169;-0.130935;0.0685424;0.0389862;-31.0983;31.5071;-15.8967;102.582;102.823;97.3414;97.6493;-0.000711563;0.0220148;9.125;11.3906;14.5859;0;1.68;2.27;2.16;0;0;0
1992;10716;-33946;4886;18298;-33580;1573218676958816;0.294468;0.785874278;0.61769418;3.90404;4.39131;6.05169;-0.130935;0.0685424;0.0389862;-31.0983;31.5071;-15.8967;102.582;102.823;97.3414;97.6493;-0.000711563;0.0220148;9.125;11.3906;14.5859;0;1.68;2.27;2.16;0;0;0
1976;10748;-33916;4922;18110;-33580;1573218676978870;0.294468;0.785874278;0.61769418;3.90404;4.39131;6.05188;-0.130539;0.0701453;0.0389862;-31.0983;31.5071;-15.8967;102.582;102.823;97.3414;97.6493;-0.000711563;0.0220148;9.125;11.3906;14.5859;0;1.68;2.27;2.16;0;0;0
2048;10814;-34038;4878;18120;-33442;1573218676998987;0.294468;0.785874278;0.61769418;3.90404;4.39131;6.05188;-0.130539;0.0701453;0.0389862;-31.0983;31.5071;-15.8967;102.582;102.823;97.3414;97.6493;-0.000711563;0.0220148;9.125;11.3906;14.5859;0;1.68;2.27;2.16;0;0;0
2084;10816;-34014;4798;18034;-33390;1573218677018834;0.294468;0.785874278;0.61769418;3.90404;4.39131;6.05188;-0.130539;0.0701453;0.0389862;-31.0983;31.5071;-15.8967;102.582;102.823;97.3414;97.6493;-0.000711563;0.0220148;9.125;11.3906;14.5859;0;1.68;2.27;2.16;0;0;0
2104;10920;-33948;4822;17784;-33422;1573218677038820;0.294468;0.785874278;0.61769418;3.90404;4.39131;6.05188;-0.130539;0.0701453;0.0389862;-31.0983;31.5071;-15.8967;102.582;102.823;97.3414;97.6493;-0.000711563;0.0220148;9.125;11.3906;14.5859;0;1.68;2.27;2.16;0;0;0
2152;10948;-33856;4758;17840;-33502;1573218677058824;0.294468;0.785874278;0.61769418;3.90404;4.39131;6.05188;-0.130539;0.0701453;0.0389862;-31.0983;31.5071;-15.8967;102.582;102.823;97.3414;97.6493;-0.000711563;0.0220148;9.125;11.3906;14.5859;0;1.68;2.27;2.16;0;0;0
2152;10930;-33814;4682;17752;-33450;1573218677078844;0.294468;0.785874278;0.61769418;3.90404;4.39131;6.05188;-0.130539;0.0701453;10.2768;-41.2976;31.5071;-15.8967;102.582;102.823;97.3414;97.6493;-0.000711563;0.0220148;9.125;11.3906;14.5859;0;1.68;2.27;2.16;0;0;0
2190;10976;-33774;4664;17614;-33326;1573218677098849;0.294468;0.785874278;0.61769418;3.90404;4.39131;6.05188;-0.130539;0.0701453;10.2768;-41.2976;31.5071;-15.8967;102.582;102.823;82.5738;76.0748;-0.00528055;-0.0143062;9.125;11.3906;14.5859;0;1.68;2.27;2.16;0;0;0
2156;11016;-33758;4658;17572;-33330;1573218677118861;0.294468;0.785874278;0.61769418;3.90404;4.39131;6.05188;-0.130539;0.0701453;10.2768;-41.2976;31.5071;-15.8967;102.582;97.0586;82.5738;76.0748;-0.00528055;-0.0143062;9.125;11.3906;14.5859;0;1.68;2.27;2.16;0;0;0
2192;11074;-33854;4624;17538;-33302;1573218677138801;0.294468;0.785874278;0.61769418;3.90404;4.39131;6.05188;-0.130539;0.0701453;10.2768;-41.2976;31.5071;-15.8967;102.582;97.0586;82.5738;76.0748;-0.00528055;-0.0143062;9.125;11.3906;14.75;0;1.68;2.13;2.08;0;0;0
2212;11034;-33842;4548;17416;-33376;1573218677158860;0.294468;0.785874278;0.61769418;3.90404;4.39131;6.05188;-0.130539;0.0701453;10.2768;-41.2976;31.5071;-15.8967;102.582;97.0586;82.5738;76.0748;-0.00528055;-0.0143062;9.125;11.3906;14.75;0;1.68;2.13;2.08;0;0;0
2256;11114;-33850;4500;17282;-33352;1573218677178812;0.294468;0.785874278;0.61769418;3.90404;4.39131;6.05215;-0.130057;0.0717456;10.2768;-41.2976;31.5071;-15.8967;102.582;97.0586;82.5738;76.0748;-0.00528055;-0.0143062;9.125;11.3906;14.75;0;1.68;2.13;2.08;0;0;0
2264;11166;-33892;4498;17238;-33272;1573218677198814;0.294468;0.785874278;0.61769418;3.90404;4.39131;6.05215;-0.130057;0.0717456;10.2768;-41.2976;31.5071;-15.8967;102.582;97.0586;82.5738;76.0748;-0.00528055;-0.0143062;9.125;11.3906;14.75;0;1.68;2.13;2.08;0;0;0
2212;11200;-33708;4446;17190;-33200;1573218677218798;0.294468;0.785874278;0.61769418;3.90404;4.39131;6.05215;-0.130057;0.0717456;10.2768;-41.2976;31.5071;-15.8967;102.582;97.0586;82.5738;76.0748;-0.00528055;-0.0143062;9.125;11.3906;14.75;0;1.68;2.13;2.08;0;0;0
2256;11262;-33704;4472;17094;-33192;1573218677238813;0.2778;0.785874278;0.61769418;3.90404;4.23275;6.05215;-0.130057;0.0717456;10.2768;-41.2976;31.5071;-15.8967;102.582;97.0586;82.5738;76.0748;-0.00528055;-0.0143062;9.125;11.3906;14.75;0;1.68;2.13;2.08;0;0;0
2310;11316;-33694;4416;17000;-33232;1573218677258811;0.2778;0.785874278;0.61769418;3.90404;4.23275;6.05215;-0.130057;0.0717456;10.2768;-41.2976;31.5071;-15.8967;102.582;97.0586;82.5738;76.0748;-0.00528055;-0.0143062;9.125;11.3906;14.75;0;1.68;2.13;2.08;0;0;0
2332;11378;-33684;4366;16956;-33204;1573218677278904;0.2778;0.785874278;0.61769418;3.90404;4.23275;6.05215;-0.130057;0.0717456;10.2768;-41.2976;31.5071;-15.8967;102.582;97.0586;82.5738;76.0748;-0.00528055;-0.0143062;9.125;11.3906;14.75;0;1.68;2.13;2.08;0;0;0
2318;11410;-33704;4394;16886;-33134;1573218677298823;0.2778;0.785874278;0.61769418;3.90404;4.23275;6.05215;-0.130057;0.0717456;10.2768;-41.2976;31.5071;-15.8967;102.582;97.0586;82.5738;76.0748;-0.00528055;-0.0143062;9.125;11.3906;14.75;0;1.68;2.13;2.08;0;0;0
2374;11428;-33698;4288;16868;-33090;1573218677318808;0.2778;0.785874278;0.61769418;3.90404;4.23275;6.05215;-0.130057;0.0717456;10.2768;-41.2976;31.5071;-15.8967;102.582;97.0586;82.5738;76.0748;-0.00528055;-0.0143062;9.125;11.3906;14.75;0;1.68;2.13;2.08;0;0;0
2394;11458;-33640;4314;16734;-33084;1573218677338829;0.2778;0.785874278;0.61769418;3.90404;4.23275;6.05215;-0.130057;0.0717456;10.2768;-41.2976;31.5071;-15.8967;102.582;97.0586;82.5738;76.0748;-0.00528055;-0.0143062;9.125;11.3906;14.75;0;1.68;2.13;2.08;0;0;0
2410;11598;-33618;4310;16688;-33202;1573218677358826;0.2778;0.785874278;0.61769418;3.90404;4.23275;6.05215;-0.130057;0.0717456;10.2768;-41.2976;31.5071;-15.8967;102.582;97.0586;82.5738;76.0748;-0.00528055;-0.0143062;9.125;11.3906;14.75;0;1.68;2.13;2.08;0;0;0
2408;11598;-33626;4280;16480;-33168;1573218677378834;0.2778;0.785874278;0.61769418;3.90404;4.23275;6.0524;-0.129438;0.0733643;10.2768;-41.2976;31.5071;-15.8967;102.582;97.0586;82.5738;76.0748;-0.00528055;-0.0143062;9.125;11.3906;14.75;0;1.68;2.13;2.08;0;0;0
2418;11590;-33560;4266;16574;-33070;1573218677398802;0.2778;0.785874278;0.61769418;3.90404;4.23275;6.0524;-0.129438;0.0733643;10.2768;-41.2976;31.5071;-15.8967;102.582;97.0586;82.5738;76.0748;-0.00528055;-0.0143062;9.125;11.3906;14.75;0;1.68;2.13;2.08;0;0;0
2442;11636;-33590;4202;16454;-33002;1573218677418827;0.2778;0.785874278;0.61769418;3.90404;4.23275;6.0524;-0.129438;0.0733643;10.2768;-41.2976;31.5071;-15.8967;102.582;97.0586;82.5738;76.0748;-0.00528055;-0.0143062;9.125;11.3906;14.75;0;1.68;2.13;2.08;0;0;0
2458;11684;-33558;4196;16386;-32986;1573218677438807;0.2778;0.785874278;0.61769418;3.90404;4.23275;6.0524;-0.129438;0.0733643;10.2768;-41.2976;31.5071;-15.8967;102.582;97.0586;82.5738;76.0748;-0.00528055;-0.0143062;9.125;11.3906;14.75;0;1.68;2.13;2.08;0;0;0
2452;11720;-33572;4198;16298;-33014;1573218677458836;0.2778;0.785874278;0.61769418;3.90404;4.23275;6.0524;-0.129438;0.0733643;10.2768;-41.2976;31.5071;-15.8967;102.582;97.0586;82.5738;76.0748;-0.00528055;-0.0143062;9.125;11.3906;14.75;0;1.68;2.13;2.08;0;0;0
2482;11718;-33660;4136;16346;-32994;1573218677478910;0.2778;0.785874278;0.61769418;3.90404;4.23275;6.0524;-0.129438;0.0733643;10.2768;-41.2976;31.5071;-15.8967;102.582;97.0586;82.5738;76.0748;-0.00528055;-0.0143062;9.125;11.3906;14.75;0;1.68;2.13;2.08;0;0;0
2468;11778;-33684;4150;16126;-33052;1573218677498828;0.2778;0.785874278;0.61769418;3.90404;4.23262;6.0524;-0.129438;0.0733643;10.2768;-41.2976;31.5071;-15.8967;102.582;97.0586;82.5738;76.0748;-0.00528055;-0.0143062;9.125;11.3906;14.75;0;1.68;2.13;2.08;0;0;0
2466;11776;-33610;4104;16234;-33080;1573218677518871;0.2778;0.785874278;0.61769418;3.90404;4.23262;6.0524;-0.129438;0.0733643;10.2768;-41.2976;31.5071;-15.8967;102.582;97.0586;82.5738;76.0748;-0.00528055;-0.0143062;9.125;11.3906;14.75;0;1.68;2.13;2.08;0;0;0
2584;11886;-33574;4072;16082;-33010;1573218677538928;0.2778;0.785874278;0.61769418;3.90404;4.23262;6.0524;-0.129438;0.0733643;10.2768;-41.2976;31.5071;-15.8967;102.582;97.0586;82.5738;76.0748;-0.00528055;-0.0143062;9.125;11.3906;14.75;0;1.68;2.13;2.08;0;0;0
2558;11858;-33594;4028;16150;-32896;1573218677558815;0.2778;0.785874278;0.61769418;3.90404;4.23262;6.0524;-0.129438;0.0733643;10.2768;-41.2976;31.5071;-15.8967;102.582;97.0586;82.5738;76.0748;-0.00528055;-0.0143062;9.125;11.3906;14.75;0;1.68;2.13;2.08;0;0;0
2610;11906;-33544;4032;15966;-32870;1573218677578812;0.2778;0.785874278;0.61769418;3.90404;4.23262;6.0524;-0.129438;0.0733643;10.2768;-41.2976;31.5071;-15.8967;102.582;97.0586;82.5738;76.0748;-0.00528055;-0.0143062;9.125;11.3906;14.75;0;1.68;2.13;2.08;0;0;0
2600;11906;-33502;4026;15994;-32898;1573218677598880;0.2778;0.785874278;0.61769418;4.02032;4.23262;6.05265;-0.128769;0.0748615;10.2768;-41.2976;31.5071;-15.8967;102.582;97.0586;82.5738;76.0748;-0.00528055;-0.0143062;9.125;11.3906;14.75;0;1.68;2.13;2.08;0;0;0
2620;12006;-33574;4000;15804;-32972;1573218677618810;0.2778;0.785874278;0.61769418;4.02032;4.23262;6.05265;-0.128769;0.0748615;10.2768;-41.2976;31.5071;-15.8967;102.582;97.0586;82.5738;76.0748;-0.00528055;-0.0143062;9.125;11.3906;14.75;0;1.68;2.13;2.08;0;0;0
2600;11956;-33536;3958;15956;-32952;1573218677638815;0.2778;0.785874278;0.61769418;4.02032;4.23262;6.05265;-0.128769;0.0748615;10.2768;-41.2976;31.5071;-15.8967;102.582;97.0586;82.5738;76.0748;-0.00528055;-0.0143062;9.125;11.3906;14.75;0;1.68;2.13;2.08;0;0;0
2644;11994;-33532;4006;15826;-32862;1573218677659078;0.2778;0.785874278;0.61769418;4.02032;4.23262;6.05265;-0.128769;0.0748615;10.2768;-41.2976;31.5071;-15.8967;102.582;97.0586;82.5738;76.0748;-0.00528055;-0.0143062;9.125;11.3906;14.75;0;1.68;2.13;2.08;0;0;0
2640;12014;-33494;3946;15704;-32838;1573218677678899;0.2778;0.785874278;0.61769418;4.02032;4.23262;6.05265;-0.128769;0.0748615;10.2768;-41.2976;31.5071;-15.8967;102.582;97.0586;60.072;76.0748;-0.0181386;-0.0143062;9.125;11.3906;14.75;0;1.68;2.13;2.08;0;0;0
2598;12052;-33454;3900;15722;-32810;1573218677699069;0.2778;0.785874278;0.61769418;4.02032;4.23262;6.05265;-0.128769;0.0748615;10.2768;-41.2976;31.5071;-15.8967;102.582;97.0586;60.072;76.0748;-0.0181386;-0.0143062;9.125;11.3906;14.75;0;1.68;2.13;2.08;0;0;0
2638;12174;-33432;3902;15602;-32848;1573218677718995;0.2778;0.785874278;0.61769418;4.02032;4.23262;6.05265;-0.128769;0.0748615;10.2768;-41.2976;31.5071;-34.3765;102.582;97.0586;60.072;76.0748;-0.0181386;-0.0143062;9.125;11.3906;14.75;0;1.68;2.13;2.08;0;0;0
2652;12180;-33480;3940;15640;-32862;1573218677738813;0.2778;0.785874278;0.61769418;4.02032;4.23262;6.05265;-0.128769;0.0748615;10.2768;-41.2976;31.5071;-34.3765;102.582;97.0586;60.072;76.0748;-0.0181386;-0.0143062;9.125;11.3906;14.75;0;1.68;2.13;2.08;0;0;0
2664;12210;-33554;3880;15640;-32862;1573218677758808;0.272244;0.785874278;0.61769418;4.02032;4.23257;6.05265;-0.128769;0.0748615;10.2768;-41.2976;31.5071;-34.3765;102.582;97.0586;60.072;76.0748;-0.0181386;-0.0143062;9.125;11.3906;14.75;0;1.68;2.13;2.08;0;0;1
2658;12202;-33464;3804;15466;-32860;1573218677778830;0.272244;0.785874278;0.61769418;4.02032;4.23257;6.05265;-0.128769;0.0748615;12.7925;-41.2976;31.5071;-34.3765;102.582;67.0228;60.072;76.0748;-0.0181386;-0.0143062;9.125;11.3906;14.75;0;1.68;2.13;2.08;0;0;1
2660;12298;-33496;3798;15458;-32816;1573218677798807;0.272244;0.785874278;0.61769418;4.04156;4.23257;6.05289;-0.127969;0.0764353;12.7925;-41.2976;31.5071;-34.3765;102.582;67.0228;60.072;76.0748;-0.0181386;0.0111353;9.125;11.3906;14.75;0;1.68;2.13;2.08;0;0;0
2670;12290;-33416;3788;15412;-32874;1573218677818859;0.272244;0.785874278;0.61769418;4.04156;4.23257;6.05289;-0.127969;0.0764353;12.7925;-66.1561;49.4086;-34.3765;102.582;67.0228;60.072;56.5453;-0.0181386;0.0111353;9.125;11.3906;14.75;0;1.68;2.13;2.08;0;0;0
2650;12360;-33420;3802;15414;-32806;1573218677838832;0.272244;0.785874278;0.61769418;4.04156;4.23257;6.05289;-0.127969;0.0764353;12.7925;-66.1561;49.4086;-34.3765;102.582;67.0228;60.072;56.5453;-0.0181386;0.0111353;9.125;11.3906;14.75;0;1.68;2.13;2.08;0;0;0
2634;12358;-33484;3778;15302;-32786;1573218677858856;0.272244;0.785874278;0.61769418;4.04156;4.23257;6.05289;-0.127969;0.0764353;12.7925;-66.1561;49.4086;-34.3765;67.0927;67.0228;60.072;56.5453;-0.0181386;0.0111353;9.125;11.3906;14.75;0;1.68;2.13;2.08;0;0;0
2614;12440;-33450;3784;15360;-32710;1573218677878937;0.272244;0.785874278;0.61769418;4.04156;4.23257;6.05289;-0.127969;0.0764353;12.7925;-66.1561;49.4086;-34.3765;67.0927;67.0228;60.072;56.5453;-0.0181386;0.0111353;9.125;11.3906;14.75;0;1.68;2.13;2.08;0;0;0
2620;12434;-33374;3746;15166;-32772;1573218677898815;0.272244;0.785874278;0.61769418;4.04156;4.23257;6.05289;-0.127969;0.0764353;12.7925;-66.1561;49.4086;-34.3765;67.0927;67.0228;60.072;56.5453;-0.0181386;0.0111353;9.125;11.3906;14.75;0;1.68;2.13;2.08;0;0;0
2634;12474;-33420;3712;15190;-32842;1573218677918838;0.272244;0.785874278;0.61769418;4.04156;4.23257;6.05289;-0.127969;0.0764353;12.7925;-66.1561;49.4086;-34.3765;67.0927;67.0228;60.072;56.5453;-0.0181386;0.0111353;9.125;11.3906;14.75;0;1.68;2.13;2.08;0;0;0
2602;12546;-33390;3678;15106;-32728;1573218677938827;0.272244;0.785874278;0.61769418;4.04156;4.23257;6.05289;-0.127969;0.0764353;12.7925;-66.1561;49.4086;-34.3765;67.0927;67.0228;60.072;56.5453;-0.0181386;0.0111353;9.125;11.3906;14.75;0;1.68;2.13;2.08;0;0;0
2584;12492;-33372;3706;15170;-32672;1573218677958829;0.272244;0.785874278;0.61769418;4.04156;4.23257;6.05289;-0.127969;0.0764353;12.7925;-66.1561;49.4086;-34.3765;67.0927;67.0228;60.072;56.5453;-0.0181386;0.0111353;9.125;11.3906;14.75;0;1.68;2.13;2.08;0;0;0
2594;12586;-33350;3680;15062;-32672;1573218677978831;0.272244;0.785874278;0.61769418;4.04156;4.23257;6.05289;-0.127969;0.0764353;12.7925;-66.1561;49.4086;-34.3765;67.0927;67.0228;60.072;56.5453;-0.0181386;0.0111353;9.125;11.3906;14.75;0;1.68;2.13;2.08;0;0;0
2642;12516;-33302;3664;15056;-32702;1573218677998865;0.272244;0.785874278;0.61769418;4.04156;4.23257;6.05289;-0.127969;0.0764353;12.7925;-66.1561;49.4086;-34.3765;67.0927;67.0228;60.072;56.5453;-0.0181386;0.0111353;9.125;11.3906;14.75;0;1.68;2.13;2.08;0;0;0
2632;12640;-33308;3646;14998;-32658;1573218678018807;0.266688;0.785874278;0.61769418;4.04156;4.23254;6.05289;-0.127969;0.0764353;12.7925;-66.1561;49.4086;-34.3765;67.0927;67.0228;60.072;56.5453;-0.0181386;0.0111353;9.125;11.3906;14.75;0;1.68;2.13;2.08;0;0;0
2692;12596;-33308;3672;15092;-32734;1573218678038810;0.266688;0.785874296;0.617694257;4.06096;4.23254;6.05311;-0.127183;0.0778761;12.7925;-66.1561;49.4086;-34.3765;67.0927;67.0228;60.072;56.5453;-0.0181386;0.0111353;9.125;11.3906;14.75;0;1.68;2.13;2.08;0;0;0
2694;12608;-33348;3646;15004;-32752;1573218678058794;0.266688;0.785874296;0.617694257;4.06096;4.23254;6.05311;-0.127183;0.0778761;12.7925;-66.1561;49.4086;-34.3765;67.0927;67.0228;60.072;56.5453;-0.0181386;0.0111353;9.125;11.3906;14.75;0;1.68;2.13;2.08;0;0;0
2688;12606;-33306;3628;14926;-32772;1573218678078847;0.266688;0.785874296;0.617694257;4.06096;4.23254;6.05311;-0.127183;0.0778761;12.7925;-66.1561;49.4086;-34.3765;67.0927;67.0228;60.072;56.5453;-0.0181386;0.0111353;9.125;11.3906;14.75;0;1.68;2.13;2.08;0;0;0
2728;12728;-33260;3630;14998;-32696;1573218678098906;0.266688;0.785874296;0.617694257;4.06096;4.23254;6.05311;-0.127183;0.0778761;18.2943;-58.7945;49.4086;-34.3765;67.0927;67.0228;60.072;56.5453;0.00747142;0.00970597;6.13281;6.0625;14.75;0;2.15;2.41;2.19;0;0;0
2704;12622;-33312;3638;14870;-32688;1573218678118835;0.266688;0.785874296;0.617694257;4.06096;4.23254;6.05311;-0.127183;0.0778761;18.2943;-58.7945;49.4086;-34.3765;67.0927;67.0228;60.072;56.5453;0.00747142;0.00970597;6.13281;6.0625;14.75;0;2.15;2.41;2.19;0;0;0
2750;12664;-33426;3612;14916;-32590;1573218678138812;0.266688;0.785874296;0.617694257;4.06096;4.23254;6.05311;-0.127183;0.0778761;18.2943;-58.7945;49.4086;-34.3765;67.0927;67.0228;60.072;56.5453;0.00747142;0.00970597;6.13281;6.0625;14.75;0;2.15;2.41;2.19;0;0;0
2750;12664;-33426;3612;14916;-32590;1573218678158812;0.266688;0.785874296;0.617694257;4.06096;4.23254;6.05311;-0.127183;0.0778761;18.2943;-58.7945;49.4086;-34.3765;67.0927;67.0228;60.072;56.5453;0.00747142;0.00970597;6.13281;6.0625;14.75;0;2.15;2.41;2.19;0;0;0
2756;12720;-33314;3598;14828;-32700;1573218678178837;0.266688;0.785874296;0.617694257;4.06096;4.23254;6.05311;-0.127183;0.0778761;18.2943;-58.7945;49.4086;-34.3765;67.0927;67.0228;60.072;56.5453;0.00747142;0.00970597;6.13281;6.0625;14.75;0;2.15;2.41;2.19;0;0;0
2764;12730;-33258;3618;14790;-32720;1573218678198832;0.266688;0.785874296;0.617694257;4.06096;4.23254;6.05311;-0.127183;0.0778761;18.2943;-58.7945;49.4086;-34.3765;67.0927;67.0228;60.072;56.5453;0.00747142;0.00970597;6.13281;6.0625;14.75;0;2.15;2.41;2.19;0;0;0
2770;12730;-33270;3572;14808;-32666;1573218678218796;0.266688;0.785874296;0.617694257;4.06096;4.23254;6.05311;-0.127183;0.0778761;18.2943;-58.7945;49.4086;-34.3765;67.0927;67.0228;60.072;56.5453;0.00747142;0.00970597;6.13281;6.0625;14.75;0;2.15;2.41;2.19;0;0;0
2770;12728;-33322;3558;14748;-32556;1573218678237879;0.266688;0.785874296;0.617694257;4.06301;4.23254;6.0534;-0.126216;0.0792076;18.2943;-58.7945;49.4086;-34.3765;67.0927;67.0228;60.072;56.5453;0.00747142;0.00970597;6.13281;6.0625;14.75;0;2.15;2.41;2.19;0;0;0
2806;12690;-33300;3556;14750;-32566;1573218678257828;0.266688;0.785874296;0.617694257;4.06301;4.23254;6.0534;-0.126216;0.0792076;18.2943;-58.7945;49.4086;-34.3765;67.0927;67.0228;60.072;56.5453;0.00747142;0.00970597;6.13281;6.0625;14.75;0;2.15;2.41;2.19;0;0;0
2860;12776;-33266;3570;14722;-32652;1573218678277908;0.266688;0.785874296;0.617694257;4.06301;4.23254;6.0534;-0.126216;0.0792076;18.2943;-58.7945;49.4086;-34.3765;67.0927;67.0228;60.072;56.5453;0.00747142;0.00970597;6.13281;6.0625;14.75;0;2.15;2.41;2.19;0;0;0
2860;12712;-33216;3546;14822;-32692;1573218678297876;0.255576;0.785874296;0.617694257;4.06301;4.16348;6.0534;-0.126216;0.0792076;18.2943;-58.7945;49.4086;-34.3765;67.0927;67.0228;60.072;56.5453;0.00747142;0.00970597;6.13281;6.0625;14.75;0;2.15;2.41;2.19;0;0;0
2886;12744;-33206;3552;14672;-32664;1573218678317788;0.255576;0.785874296;0.617694257;4.06301;4.16348;6.0534;-0.126216;0.0792076;18.2943;-58.7945;49.4086;-34.3765;67.0927;67.0228;60.072;56.5453;0.00747142;0.00970597;6.13281;6.0625;14.75;0;2.15;2.41;2.19;0;0;0
2898;12742;-33260;3534;14694;-32608;1573218678337810;0.255576;0.785874296;0.617694257;4.06301;4.16348;6.0534;-0.126216;0.0792076;18.2943;-58.7945;49.4086;-34.3765;67.0927;67.0228;60.072;56.5453;0.00747142;0.00970597;6.13281;6.0625;14.75;0;2.15;2.41;2.19;0;0;0
2948;12784;-33236;3528;14754;-32542;1573218678358128;0.255576;0.785874296;0.617694257;4.06301;4.16348;6.0534;-0.126216;0.0792076;18.2943;-58.7945;49.4086;-34.3765;67.0927;67.0228;60.072;56.5453;0.00747142;0.00970597;6.13281;6.0625;14.75;0;2.15;2.41;2.19;0;0;0
2922;12730;-33362;3538;14622;-32568;1573218678377802;0.255576;0.785874296;0.617694257;4.06301;4.16348;6.0534;-0.126216;0.0792076;18.2943;-58.7945;49.4086;-34.3765;67.0927;67.0228;60.072;56.5453;0.00747142;0.00970597;6.13281;6.0625;14.75;0;2.15;2.41;2.19;0;0;0
2914;12800;-33232;3508;14712;-32644;1573218678397801;0.255576;0.785874296;0.617694257;4.06301;4.16348;6.0534;-0.126216;0.0792076;18.2943;-58.7945;49.4086;-34.3765;67.0927;67.0228;60.072;56.5453;0.00747142;0.00970597;6.13281;6.0625;14.75;0;2.15;2.41;2.19;0;0;0
2928;12698;-33232;3488;14630;-32640;1573218678417876;0.255576;0.785874296;0.617694257;4.06301;4.16348;6.0534;-0.126216;0.0792076;18.2943;-58.7945;49.4086;-34.3765;67.0927;67.0228;60.072;56.5453;0.00747142;0.00970597;6.13281;6.0625;14.75;0;2.15;2.41;2.19;0;0;0
2950;12768;-33232;3482;14660;-32628;1573218678437801;0.255576;0.785874296;0.617694257;4.08494;4.16348;6.05356;-0.125336;0.0802477;18.2943;-58.7945;49.4086;-34.3765;67.0927;67.0228;60.072;56.5453;0.00747142;0.00970597;6.13281;6.0625;14.75;0;2.15;2.41;2.19;0;0;0
2956;12756;-33236;3506;14562;-32560;1573218678457805;0.255576;0.785874296;0.617694257;4.08494;4.16348;6.05356;-0.125336;0.0802477;18.2943;-58.7945;49.4086;-34.3765;67.0927;67.0228;60.072;56.5453;0.00747142;0.00970597;6.13281;6.0625;14.75;0;2.15;2.41;2.19;0;0;0
2970;12740;-33266;3546;14642;-32566;1573218678477809;0.255576;0.785874296;0.617694257;4.08494;4.16348;6.05356;-0.125336;0.0802477;18.2943;-58.7945;49.4086;-34.3765;67.0927;67.0228;60.072;56.5453;0.00747142;0.00970597;6.13281;6.0625;14.75;0;2.15;2.41;2.19;0;0;0
2966;12748;-33288;3504;14592;-32488;1573218678497811;0.255576;0.785874296;0.617694257;4.08494;4.16348;6.05356;-0.125336;0.0802477;18.2943;-58.7945;49.4086;-34.3765;67.0927;67.0228;60.072;56.5453;0.00747142;0.00970597;6.13281;6.0625;14.75;0;2.15;2.41;2.19;0;0;0
3040;12772;-33322;3484;14636;-32506;1573218678517797;0.255576;0.785874296;0.617694257;4.08494;4.16348;6.05356;-0.125336;0.0802477;18.2943;-58.7945;49.4086;-34.3765;67.0927;67.0228;60.072;56.5453;0.00747142;0.00970597;6.13281;6.0625;14.75;0;2.15;2.41;2.19;0;0;0
3074;12754;-33328;3460;14596;-32546;1573218678537814;0.255576;0.785874296;0.617694257;4.08494;4.16348;6.05356;-0.125336;0.0802477;18.2943;-58.7945;49.4086;-34.3765;67.0927;67.0228;60.072;56.5453;0.00747142;0.00970597;6.13281;6.0625;14.75;0;2.15;2.41;2.19;0;0;0
3040;12736;-33198;3464;14594;-32610;1573218678557856;0.25002;0.785874296;0.617694257;4.08494;4.16378;6.05356;-0.125336;0.0802477;18.2943;-58.7945;49.4086;-34.3765;67.0927;67.0228;60.072;56.5453;0.00747142;0.00970597;6.13281;6.0625;14.75;0;2.15;2.41;2.19;0;0;0
3084;12770;-33238;3488;14622;-32616;1573218678577882;0.25002;0.785874296;0.617694257;4.08494;4.16378;6.05356;-0.125336;0.0802477;18.2943;-58.7945;49.4086;-34.3765;67.0927;67.0228;60.072;56.5453;0.00747142;0.00970597;6.13281;6.0625;14.75;0;2.15;2.41;2.19;0;0;0
3086;12688;-33238;3454;14464;-32486;1573218678597813;0.25002;0.785874296;0.617694257;4.08494;4.16378;6.05356;-0.125336;0.0802477;18.2943;-58.7945;49.4086;-35.0193;34.8783;67.0228;60.072;56.5453;0.00747142;0.00970597;6.13281;6.0625;14.75;0;2.15;2.41;2.19;0;0;0
3100;12744;-33248;3460;14576;-32434;1573218678617843;0.25002;0.785874296;0.617694257;4.08494;4.16378;6.05356;-0.125336;0.0802477;18.2943;-58.7945;49.4086;-35.0193;34.8783;35.1156;30.1941;30.2239;0.00747142;0.00970597;6.13281;6.0625;14.75;0;2.15;2.41;2.19;0;0;0
3082;12752;-33158;3486;14530;-32486;1573218678637809;0.25002;0.785874296;0.617694257;4.08494;4.16378;6.05356;-0.125336;0.0802477;18.2943;-58.7945;48.9966;-35.0193;34.8783;35.1156;30.1941;30.2239;0.00747142;0.00970597;6.13281;6.0625;14.75;0;2.15;2.41;2.19;0;0;0
3100;12706;-33250;3474;14536;-32492;1573218678657797;0.25002;0.785874296;0.617694257;4.10846;4.16378;6.05375;-0.124182;0.0809931;18.2943;-58.7945;48.9966;-35.0193;34.8783;35.1156;30.1941;30.2239;0.00747142;0.00970597;6.13281;6.0625;14.75;0;2.15;2.41;2.19;0;0;0
3134;12724;-33304;3458;14472;-32508;1573218678677829;0.25002;0.785874296;0.617694257;4.10846;4.16378;6.05375;-0.124182;0.0809931;18.2943;-58.7945;48.9966;-35.0193;34.8783;35.1156;30.1941;30.2239;0.00747142;0.00970597;6.13281;6.0625;14.75;0;2.15;2.41;2.19;0;0;0
3116;12796;-33316;3464;14530;-32536;1573218678697878;0.25002;0.785874296;0.617694257;4.10846;4.16378;6.05375;-0.124182;0.0809931;18.2943;-58.7945;48.9966;-35.0193;34.8783;35.1156;30.1941;30.2239;0.00747142;0.00970597;6.13281;6.0625;14.75;0;2.15;2.41;2.19;0;0;0
3092;12736;-33168;3432;14504;-32594;1573218678718056;0.25002;0.785874296;0.617694257;4.10846;4.16378;6.05375;-0.124182;0.0809931;18.2943;-58.7945;48.9966;-35.0193;34.8783;35.1156;30.1941;30.2239;0.00747142;0.00970597;6.13281;6.0625;14.75;0;2.15;2.41;2.19;0;0;0
3094;12828;-33210;3430;14440;-32570;1573218678737794;0.25002;0.785874296;0.617694257;4.10846;4.16378;6.05375;-0.124182;0.0809931;18.2943;-58.7945;48.9966;-35.0193;34.8783;35.1156;30.1941;30.2239;0.00747142;0.00970597;6.13281;6.0625;14.75;0;2.15;2.41;2.19;0;0;0
3060;12834;-33214;3424;14522;-32490;1573218678757794;0.25002;0.785874296;0.617694257;4.10846;4.16378;6.05375;-0.124182;0.0809931;18.2943;-58.7945;48.9966;-35.0193;34.8783;35.1156;30.1941;30.2239;0.00747142;0.00970597;6.13281;6.0625;14.75;0;2.15;2.41;2.19;0;0;0
3068;12912;-33278;3424;14406;-32466;1573218678777856;0.25002;0.785874296;0.617694257;4.10846;4.16378;6.05375;-0.124182;0.0809931;18.2943;-58.7945;48.9966;-35.0193;34.8783;35.1156;30.1941;30.2239;0.00747142;0.00970597;6.13281;6.0625;14.75;0;2.15;2.41;2.19;0;0;0
3102;12908;-33286;3412;14482;-32422;1573218678797839;0.25002;0.785874296;0.617694257;4.10846;4.16378;6.05375;-0.124182;0.0809931;18.2943;-58.7945;48.9966;-35.0193;34.8783;35.1156;30.1941;30.2239;0.00747142;0.00970597;6.13281;6.0625;14.75;0;2.15;2.41;2.19;0;0;0
3062;12932;-33326;3400;14424;-32478;1573218678817905;0.244464;0.785874296;0.617694257;4.10846;4.16429;6.05375;-0.124182;0.0809931;18.2943;-58.7945;48.9966;-35.0193;34.8783;35.1156;30.1941;30.2239;0.00747142;0.00970597;6.13281;6.0625;14.75;0;2.15;2.41;2.19;0;0;0
3062;12908;-33284;3418;14466;-32492;1573218678837831;0.244464;0.785874296;0.617694257;4.10846;4.16429;6.05375;-0.124182;0.0809931;18.2943;-58.7945;48.9966;-35.0193;34.8783;35.1156;30.1941;30.2239;0.00747142;0.00970597;6.13281;6.0625;14.75;0;2.15;2.41;2.19;0;0;0
3032;12962;-33326;3432;14414;-32538;1573218678857845;0.244464;0.785874296;0.617694257;4.10846;4.16429;6.05375;-0.124182;0.0809931;18.2943;-58.7945;48.9966;-35.0193;34.8783;35.1156;30.1941;30.2239;0.00747142;0.00970597;6.13281;6.0625;14.75;0;2.15;2.41;2.19;0;0;0
3006;12994;-33142;3408;14438;-32588;1573218678877884;0.244464;0.785874296;0.617694257;4.15739;4.16429;6.05399;-0.123118;0.0812551;18.2943;-58.7945;48.9966;-35.0193;34.8783;35.1156;30.1941;30.2239;0.00747142;0.00970597;6.13281;6.0625;14.75;0;2.15;2.41;2.19;0;0;0
2984;13032;-33158;3396;14402;-32524;1573218678897949;0.244464;0.785874296;0.617694257;4.15739;4.16429;6.05399;-0.123118;0.0812551;18.2943;-58.7945;48.9966;-35.0193;34.8783;35.1156;30.1941;30.2239;0.00747142;0.00970597;6.13281;6.0625;14.75;0;2.15;2.41;2.19;0;0;0
2982;12984;-33234;3404;14398;-32502;1573218678917857;0.244464;0.785874296;0.617694257;4.15739;4.16429;6.05399;-0.123118;0.0812551;18.2943;-58.7945;48.9966;-35.0193;34.8783;35.1156;30.1941;30.2239;0.00747142;0.00970597;6.13281;6.0625;14.75;0;2.15;2.41;2.19;0;0;0
3016;12932;-33296;3404;14424;-32472;1573218678937793;0.244464;0.785874296;0.617694257;4.15739;4.16429;6.05399;-0.123118;0.0812551;18.2943;-58.7945;48.9966;-35.0193;34.8783;35.1156;30.1941;30.2239;0.00747142;0.00970597;6.13281;6.0625;14.75;0;2.15;2.41;2.19;0;0;0
3026;12964;-33298;3382;14348;-32432;1573218678957815;0.244464;0.785874296;0.617694257;4.15739;4.16429;6.05399;-0.123118;0.0812551;18.2943;-58.7945;48.9966;-35.0193;34.8783;35.1156;30.1941;30.2239;0.00747142;0.00970597;6.13281;6.0625;14.75;0;2.15;2.41;2.19;0;0;0
3062;12910;-33318;3366;14462;-32438;1573218678977850;0.244464;0.785874296;0.617694257;4.15739;4.16429;6.05399;-0.123118;0.0812551;18.2943;-58.7945;48.9966;-35.0193;34.8783;35.1156;30.1941;30.2239;0.00747142;0.00970597;6.13281;6.0625;14.75;0;2.15;2.41;2.19;0;0;0
3044;12984;-33266;3408;14378;-32452;1573218678997828;0.244464;0.785874296;0.617694257;4.15739;4.16429;6.05399;-0.123118;0.0812551;18.2943;-58.7945;48.9966;-35.0193;34.8783;35.1156;30.1941;30.2239;0.00747142;0.00970597;6.13281;6.0625;14.75;0;2.15;2.41;2.19;0;0;0
3088;12868;-33172;3362;14432;-32486;1573218679017798;0.244464;0.785874296;0.617694257;4.15739;4.16429;6.05399;-0.123118;0.0812551;18.2943;-58.7945;48.9966;-35.0193;34.8783;35.1156;30.1941;30.2239;0.00747142;0.00970597;6.13281;6.0625;14.75;0;2.15;2.41;2.19;0;0;0
3102;12916;-33138;3386;14382;-32588;1573218679037826;0.244464;0.785874296;0.617694257;4.15739;4.16429;6.05399;-0.123118;0.0812551;18.2943;-58.7945;48.9966;-35.0193;34.8783;35.1156;30.1941;30.2239;0.00747142;0.00970597;6.13281;6.0625;14.75;0;2.15;2.41;2.19;0;0;0
3148;12856;-33244;3380;14388;-32578;1573218679057791;0.244464;0.785874296;0.617694257;4.15739;4.16429;6.05399;-0.123118;0.0812551;18.2943;-58.7945;48.9966;-35.0193;34.8783;35.1156;30.1941;30.2239;0.00747142;0.00970597;6.13281;6.0625;14.75;0;2.15;2.41;2.19;0;0;0
3168;12906;-33320;3388;14442;-32538;1573218679077792;0.244464;0.785874296;0.617694257;4.15739;4.16491;6.05399;-0.123118;0.0812551;18.2943;-58.7945;48.9966;-35.0193;34.8783;35.1156;30.1941;30.2239;0.00747142;0.00970597;6.13281;6.0625;14.75;0;2.15;2.41;2.19;0;0;0
3202;12866;-33286;3406;14414;-32464;1573218679097828;0.244464;0.785874317;0.617694339;4.18653;4.16491;6.05409;-0.121101;0.0810122;18.2943;-58.7945;48.9966;-35.0193;34.8783;35.1156;30.1941;30.2239;0.00747142;0.00970597;6.13281;6.0625;14.75;0;2.15;2.41;2.19;0;0;0
3188;12854;-33316;3374;14420;-32442;1573218679117795;0.244464;0.785874317;0.617694339;4.18653;4.16491;6.05409;-0.121101;0.0810122;10.7185;-73.4952;48.9966;-35.0193;34.8783;35.1156;12.6748;30.2239;0.00747142;0.00970597;6.13281;6.0625;14.75;0;2.15;2.41;2.19;0;0;0
3162;12842;-33320;3404;14392;-32556;1573218679137872;0.244464;0.785874317;0.617694339;4.18653;4.16491;6.05409;-0.121101;0.0810122;10.7185;-73.4952;44.0192;-39.6262;22.1612;35.1156;12.6748;13.5251;0.00970597;-0.00468758;6.13281;6.0625;14.75;0;2.15;2.41;2.19;0;0;0
3146;12876;-33240;3376;14454;-32566;1573218679157820;0.244464;0.785874317;0.617694339;4.18653;4.16491;6.05409;-0.121101;0.0810122;10.7185;-73.4952;44.0192;-39.6262;22.1612;22.3642;12.6748;13.5251;0.00970597;-0.00468758;6.13281;6.0625;14.75;0;2.15;2.41;2.19;0;0;0
3164;12868;-33306;3372;14474;-32484;1573218679177816;0.244464;0.785874317;0.617694339;4.18653;4.16491;6.05409;-0.121101;0.0810122;10.7185;-73.4952;44.0192;-39.6262;22.1612;22.3642;12.6748;13.5251;0.00970597;-0.00468758;6.13281;6.0625;14.75;0;2.15;2.41;2.19;0;0;0
3170;12830;-33258;3358;14486;-32438;1573218679197789;0.244464;0.785874317;0.617694339;4.18653;4.16491;6.05409;-0.121101;0.0810122;10.7185;-73.4952;44.0192;-39.6262;22.1612;22.3642;12.6748;13.5251;0.00970597;-0.00468758;6.13281;6.0625;14.75;0;2.15;2.41;2.19;0;0;0
3134;12860;-33300;3342;14404;-32456;1573218679217807;0.244464;0.785874317;0.617694339;4.18653;4.16491;6.05409;-0.121101;0.0810122;10.7185;-73.4952;44.0192;-39.6262;22.1612;22.3642;12.6748;13.5251;0.00970597;-0.00468758;6.13281;6.0625;14.75;0;2.15;2.41;2.19;0;0;0
3136;12866;-33236;3380;14462;-32508;1573218679237800;0.244464;0.785874317;0.617694339;4.18653;4.16491;6.05409;-0.121101;0.0810122;10.7185;-73.4952;44.0192;-39.6262;22.1612;22.3642;12.6748;13.5251;0.00970597;-0.00468758;6.13281;6.0625;14.75;0;2.15;2.41;2.19;0;0;0
3166;12906;-33162;3332;14402;-32576;1573218679257805;0.244464;0.785874317;0.617694339;4.18653;4.16491;6.05409;-0.121101;0.0810122;10.7185;-73.4952;44.0192;-39.6262;22.1612;22.3642;12.6748;13.5251;0.00970597;-0.00468758;6.13281;6.0625;14.75;0;2.15;2.41;2.19;0;0;0
3200;12816;-33216;3334;14436;-32526;1573218679277818;0.244464;0.785874317;0.617694339;4.18653;4.16491;6.05409;-0.121101;0.0810122;10.7185;-73.4952;44.0192;-39.6262;22.1612;22.3642;12.6748;13.5251;0.00970597;-0.00468758;6.13281;6.0625;14.75;0;2.15;2.41;2.19;0;0;0
3214;12860;-33246;3328;14418;-32454;1573218679297880;0.244464;0.785874317;0.617694339;4.18653;4.16491;6.05409;-0.121101;0.0810122;10.7185;-73.4952;44.0192;-39.6262;22.1612;22.3642;12.6748;13.5251;0.00970597;-0.00468758;6.13281;6.0625;14.75;0;2.15;2.41;2.19;0;0;0
3160;12810;-33270;3342;14382;-32456;1573218679317828;0.244464;0.785874317;0.617694339;4.21593;4.16491;6.05422;-0.119364;0.0801457;10.7185;-73.4952;44.0192;-39.6262;22.1612;22.3642;12.6748;13.5251;0.00970597;-0.00468758;6.13281;6.0625;14.75;0;2.15;2.41;2.19;0;0;0
3174;12876;-33290;3332;14406;-32512;1573218679337824;0.244464;0.785874317;0.617694339;4.21593;4.16491;6.05422;-0.119364;0.0801457;10.7185;-73.4952;44.0192;-39.6262;22.1612;22.3642;12.6748;13.5251;0.00970597;-0.00468758;6.13281;6.0625;14.75;0;2.15;2.41;2.19;0;0;0
3170;12824;-33326;3350;14394;-32508;1573218679358311;0.244464;0.785874317;0.617694339;4.21593;4.16491;6.05422;-0.119364;0.0801457;10.7185;-73.4952;44.0192;-39.6262;22.1612;22.3642;12.6748;13.5251;0.00970597;-0.00468758;6.13281;6.0625;14.75;0;2.15;2.41;2.19;0;0;0
3154;12846;-33270;3374;14396;-32558;1573218679377797;0.233352;0.785874317;0.617694339;4.21593;4.0886;6.05422;-0.119364;0.0801457;10.7185;-73.4952;44.0192;-39.6262;22.1612;22.3642;12.6748;13.5251;0.00970597;-0.00468758;6.13281;6.0625;14.75;0;2.15;2.41;2.19;0;0;0
3104;12808;-33250;3330;14414;-32464;1573218679397871;0.233352;0.785874317;0.617694339;4.21593;4.0886;6.05422;-0.119364;0.0801457;10.7185;-73.4952;44.0192;-39.6262;22.1612;22.3642;12.6748;13.5251;0.00970597;-0.00468758;6.13281;6.0625;14.75;0;2.15;2.41;2.19;0;0;0
3118;12794;-33188;3330;14408;-32442;1573218679417894;0.233352;0.785874317;0.617694339;4.21593;4.0886;6.05422;-0.119364;0.0801457;10.7185;-73.4952;44.0192;-39.6262;22.1612;22.3642;12.6748;13.5251;0.00970597;-0.00468758;6.13281;6.0625;14.75;0;2.15;2.41;2.19;0;0;0
3140;12844;-33180;3348;14394;-32460;1573218679437869;0.233352;0.785874317;0.617694339;4.21593;4.0886;6.05422;-0.119364;0.0801457;10.7185;-73.4952;44.0192;-39.6262;22.1612;22.3642;12.6748;13.5251;0.00970597;-0.00468758;6.13281;6.0625;14.75;0;2.15;2.41;2.19;0;0;0
3158;12798;-33218;3330;14354;-32570;1573218679457794;0.233352;0.785874317;0.617694339;4.21593;4.0886;6.05422;-0.119364;0.0801457;10.7185;-73.4952;44.0192;-39.6262;22.1612;22.3642;12.6748;13.5251;0.00970597;-0.00468758;6.13281;6.0625;14.75;0;2.15;2.41;2.19;0;0;0
3164;12860;-33276;3326;14340;-32488;1573218679477805;0.233352;0.785874317;0.617694339;4.21593;4.0886;6.05422;-0.119364;0.0801457;10.7185;-73.4952;44.0192;-39.6262;22.1612;22.3642;12.6748;13.5251;0.00970597;-0.00468758;6.13281;6.0625;14.75;0;2.15;2.41;2.19;0;0;0
3128;12796;-33348;3344;14338;-32422;1573218679497831;0.233352;0.785874317;0.617694339;4.21593;4.0886;6.05422;-0.119364;0.0801457;10.7185;-73.4952;44.0192;-39.6262;22.1612;22.3642;12.6748;13.5251;0.00970597;-0.00468758;6.13281;6.0625;14.75;0;2.15;2.41;2.19;0;0;0
3106;12850;-33350;3318;14400;-32528;1573218679517935;0.233352;0.785874317;0.617694339;4.21593;4.0886;6.05422;-0.119364;0.0801457;10.7185;-73.4952;44.0192;-39.6262;22.1612;22.3642;12.6748;13.5251;0.00970597;-0.00468758;6.13281;6.0625;14.75;0;2.15;2.41;2.19;0;0;0
3162;12798;-33298;3326;14416;-32562;1573218679537798;0.233352;0.785874317;0.617694339;4.2845;4.0886;6.05424;-0.117721;0.0789478;10.7185;-73.4952;44.0192;-39.6262;22.1612;22.3642;12.6748;13.5251;0.00970597;-0.00468758;6.13281;6.0625;14.75;0;2.15;2.41;2.19;0;0;0
3146;12856;-33296;3326;14354;-32586;1573218679557809;0.233352;0.785874317;0.617694339;4.2845;4.0886;6.05424;-0.117721;0.0789478;10.7185;-73.4952;44.0192;-39.6262;22.1612;22.3642;12.6748;13.5251;0.00970597;-0.00468758;6.13281;6.0625;14.75;0;2.15;2.41;2.19;0;0;0
3152;12786;-33286;3342;14396;-32584;1573218679577797;0.233352;0.785874317;0.617694339;4.2845;4.0886;6.05424;-0.117721;0.0789478;10.7185;-73.4952;44.0192;-39.6262;22.1612;22.3642;12.6748;13.5251;0.00970597;-0.00468758;6.13281;6.0625;14.75;0;2.15;2.41;2.19;0;0;0
3134;12768;-33278;3344;14442;-32508;1573218679597848;0.233352;0.785874317;0.617694339;4.2845;4.0886;6.05424;-0.117721;0.0789478;10.7185;-73.4952;44.0192;-39.6262;22.1612;22.3642;12.6748;13.5251;0.00970597;-0.00468758;6.13281;6.0625;14.75;0;2.15;2.41;2.19;0;0;0
3100;12766;-33342;3336;14460;-32490;1573218679617827;0.233352;0.785874317;0.617694339;4.2845;4.0886;6.05424;-0.117721;0.0789478;10.7185;-73.4952;44.0192;-39.6262;22.1612;22.3642;12.6748;13.5251;0.00970597;-0.00468758;6.13281;6.0625;14.75;0;2.15;2.41;2.19;0;0;0
3084;12790;-33322;3296;14442;-32488;1573218679637947;0.233352;0.785874317;0.617694339;4.2845;4.08985;6.05424;-0.117721;0.0789478;10.7185;-73.4952;44.0192;-39.6262;22.1612;22.3642;12.6748;13.5251;0.00970597;-0.00468758;6.13281;6.0625;14.75;0;2.15;2.41;2.19;0;0;0
3102;12780;-33354;3272;14400;-32494;1573218679657840;0.233352;0.785874317;0.617694339;4.2845;4.08985;6.05424;-0.117721;0.0789478;10.7185;-73.4952;44.0192;-39.6262;22.1612;22.3642;12.6748;13.5251;0.00970597;-0.00468758;6.13281;6.0625;14.75;0;2.15;2.41;2.19;0;0;0
3068;12770;-33268;3290;14480;-32554;1573218679678132;0.233352;0.785874317;0.617694339;4.2845;4.08985;6.05424;-0.117721;0.0789478;10.7185;-73.4952;44.0192;-39.6262;22.1612;22.3642;12.6748;13.5251;0.00970597;-0.00468758;6.13281;6.0625;14.75;0;2.15;2.41;2.19;0;0;0
3080;12780;-33232;3312;14380;-32604;1573218679697814;0.233352;0.785874317;0.617694339;4.2845;4.08985;6.05424;-0.117721;0.0789478;10.7185;-73.4952;44.0192;-39.6262;22.1612;22.3642;12.6748;13.5251;0.00970597;-0.00468758;6.13281;6.0625;14.75;0;2.15;2.41;2.19;0;0;0
3056;12796;-33168;3322;14398;-32532;1573218679717812;0.233352;0.785874317;0.617694339;4.2845;4.08985;6.05424;-0.117721;0.0789478;10.7185;-73.4952;44.0192;-39.6262;22.1612;22.3642;12.6748;13.5251;0.00970597;-0.00468758;6.13281;6.0625;14.75;0;2.15;2.41;2.19;0;0;0
3064;12758;-33198;3322;14360;-32476;1573218679737855;0.233352;0.785874317;0.617694339;4.2845;4.08985;6.05424;-0.117721;0.0789478;10.7185;-73.4952;44.0192;-39.6262;22.1612;22.3642;12.6748;13.5251;0.00970597;-0.00468758;6.13281;6.0625;14.75;0;2.15;2.41;2.19;0;0;0
3084;12748;-33218;3276;14494;-32500;1573218679757816;0.233352;0.785874317;0.617694339;4.29275;4.08985;6.05424;-0.116181;0.0774635;10.7185;-73.4952;44.0192;-39.6262;22.1612;22.3642;12.6748;13.5251;0.00970597;-0.00468758;6.13281;6.0625;14.75;0;2.15;2.41;2.19;0;0;0
3032;12704;-33200;3298;14440;-32540;1573218679777988;0.233352;0.785874317;0.617694339;4.29275;4.08985;6.05424;-0.116181;0.0774635;10.7185;-73.4952;44.0192;-39.6262;-0.811351;22.3642;-0.350907;-7.34006;-0.00303975;-0.0121215;6.13281;6.0625;2.79688;0;1.77;2.15;1.99;0;0;0
3078;12794;-33170;3300;14514;-32610;1573218679797879;0.233352;0.785874317;0.617694339;4.29275;4.08985;6.05424;-0.116181;0.0774635;10.7185;-73.4952;44.0192;-39.6262;-0.811351;22.3642;-0.350907;-7.34006;-0.00303975;-0.0121215;6.13281;6.0625;2.79688;0;1.77;2.15;1.99;0;0;0
3090;12700;-33220;3306;14476;-32596;1573218679817787;0.233352;0.785874317;0.617694339;4.29275;4.08985;6.05424;-0.116181;0.0774635;10.7185;-73.4952;44.0192;-39.6262;-0.811351;22.3642;-0.350907;-7.34006;-0.00303975;-0.0121215;6.13281;6.0625;2.79688;0;1.77;2.15;1.99;0;0;0
3078;12696;-33222;3266;14444;-32564;1573218679837844;0.233352;0.785874317;0.617694339;4.29275;4.08985;6.05424;-0.116181;0.0774635;10.7185;-73.4952;44.0192;-39.6262;-0.811351;22.3642;-0.350907;-7.34006;-0.00303975;-0.0121215;6.13281;6.0625;2.79688;0;1.77;2.15;1.99;0;0;0
3056;12698;-33218;3314;14476;-32504;1573218679857804;0.233352;0.785874317;0.617694339;4.29275;4.08985;6.05424;-0.116181;0.0774635;10.7185;-73.4952;44.0192;-39.6262;-0.811351;22.3642;-0.350907;-7.34006;-0.00303975;-0.0121215;6.13281;6.0625;2.79688;0;1.77;2.15;1.99;0;0;0
3042;12762;-33228;3294;14460;-32506;1573218679877805;0.233352;0.785874317;0.617694339;4.29275;4.08985;6.05424;-0.116181;0.0774635;10.7185;-73.4952;44.0192;-39.6262;-0.811351;22.3642;-0.350907;-7.34006;-0.00303975;-0.0121215;6.13281;6.0625;2.79688;0;1.77;2.15;1.99;0;0;0
3070;12692;-33204;3260;14478;-32584;1573218679897832;0.233352;0.785874317;0.617694339;4.29275;4.08985;6.05424;-0.116181;0.0774635;10.7185;-73.4952;44.0192;-39.6262;-0.811351;22.3642;-0.350907;-7.34006;-0.00303975;-0.0121215;6.13281;6.0625;2.79688;0;1.77;2.15;1.99;0;0;0
3040;12702;-33220;3278;14416;-32644;1573218679917820;0.227796;0.785874317;0.617694339;4.29275;4.09125;6.05424;-0.116181;0.0774635;10.7185;-73.4952;44.0192;-39.6262;-0.811351;22.3642;-0.350907;-7.34006;-0.00303975;-0.0121215;6.13281;6.0625;2.79688;0;1.77;2.15;1.99;0;0;0
3038;12688;-33256;3286;14452;-32600;1573218679937789;0.227796;0.785874317;0.617694339;4.29275;4.09125;6.05424;-0.116181;0.0774635;10.7185;-73.4952;44.0192;-39.6262;-0.811351;22.3642;-0.350907;-7.34006;-0.00303975;-0.0121215;6.13281;6.0625;2.79688;0;1.77;2.15;1.99;0;0;0
3036;12700;-33256;3280;14524;-32600;1573218679957795;0.227796;0.785874317;0.617694339;4.32407;4.09125;6.05428;-0.114447;0.0755745;10.7185;-73.4952;44.0192;-39.6262;-0.811351;22.3642;-0.350907;-7.34006;-0.00303975;-0.0121215;6.13281;6.0625;2.79688;0;1.77;2.15;1.99;0;0;0
2990;12704;-33216;3286;14426;-32518;1573218679978324;0.227796;0.785874317;0.617694339;4.32407;4.09125;6.05428;-0.114447;0.0755745;10.7185;-73.4952;44.0192;-39.6262;-0.811351;22.3642;-0.350907;-7.34006;-0.00303975;-0.0121215;6.13281;6.0625;2.79688;0;1.77;2.15;1.99;0;0;0
2944;12694;-33270;3264;14506;-32540;1573218679997827;0.227796;0.785874317;0.617694339;4.32407;4.09125;6.05428;-0.114447;0.0755745;10.7185;-73.4952;44.0192;-39.6262;-0.811351;22.3642;-0.350907;-7.34006;-0.00303975;-0.0121215;6.13281;6.0625;2.79688;0;1.77;2.15;1.99;0;0;0
2974;12680;-33336;3236;14428;-32606;1573218680017842;0.227796;0.785874317;0.617694339;4.32407;4.09125;6.05428;-0.114447;0.0755745;10.7185;-73.4952;44.0192;-39.6262;-0.811351;22.3642;-0.350907;-7.34006;-0.00303975;-0.0121215;6.13281;6.0625;2.79688;0;1.77;2.15;1.99;0;0;0
2928;12660;-33320;3256;14506;-32676;1573218680037861;0.227796;0.785874317;0.617694339;4.32407;4.09125;6.05428;-0.114447;0.0755745;10.7185;-73.4952;44.0192;-39.6262;-0.811351;22.3642;-0.350907;-7.34006;-0.00303975;-0.0121215;6.13281;6.0625;2.79688;0;1.77;2.15;1.99;0;0;0
2922;12686;-33346;3266;14460;-32608;1573218680057833;0.227796;0.785874317;0.617694339;4.32407;4.09125;6.05428;-0.114447;0.0755745;10.7185;-73.4952;44.0192;-39.6262;-0.811351;22.3642;-0.350907;-7.34006;-0.00303975;-0.0121215;6.13281;6.0625;2.79688;0;1.77;2.15;1.99;0;0;0
2926;12644;-33272;3256;14570;-32562;1573218680077818;0.227796;0.785874317;0.617694339;4.32407;4.09125;6.05428;-0.114447;0.0755745;3.8869;-78.384;44.0192;-39.6262;-0.811351;22.3642;-0.350907;-7.34006;-0.00303975;-0.0121215;6.13281;6.0625;2.79688;0;1.77;2.15;1.99;0;0;0
2958;12642;-33224;3250;14472;-32538;1573218680097812;0.227796;0.785874317;0.617694339;4.32407;4.09125;6.05428;-0.114447;0.0755745;3.8869;-78.384;44.1336;-39.8338;-0.811351;-4.75826;-0.350907;-7.34006;-0.00303975;-0.0121215;6.13281;6.0625;2.79688;0;1.77;2.15;1.99;0;0;0
2886;12548;-33276;3268;14572;-32584;1573218680117873;0.227796;0.785874317;0.617694339;4.32407;4.09125;6.05428;-0.114447;0.0755745;3.8869;-78.384;44.1336;-39.8338;-0.811351;-4.75826;-0.350907;-7.34006;-0.00303975;-0.0121215;6.13281;6.0625;2.79688;0;1.77;2.15;1.99;0;0;0
2956;12588;-33266;3242;14526;-32606;1573218680137822;0.227796;0.785874317;0.617694339;4.32407;4.09125;6.05428;-0.114447;0.0755745;3.8869;-78.384;44.1336;-39.8338;-0.811351;-4.75826;-0.350907;-7.34006;-0.00701576;-0.0141626;6.13281;6.0625;2.79688;0;1.77;2.15;1.99;0;0;0
2914;12520;-33300;3244;14526;-32702;1573218680157861;0.227796;0.785874317;0.617694339;4.32407;4.09265;6.05428;-0.114447;0.0755745;3.8869;-78.384;44.1336;-39.8338;-0.811351;-4.75826;-0.350907;-7.34006;-0.00701576;-0.0141626;6.13281;6.0625;2.79688;0;1.77;2.15;1.99;0;0;0
2944;12548;-33318;3240;14592;-32618;1573218680177825;0.227796;0.785874335;0.617694417;4.32598;4.09265;6.05411;-0.112749;0.0735212;3.8869;-78.384;44.1336;-39.8338;-0.811351;-4.75826;-0.350907;-7.34006;-0.00701576;-0.0141626;6.13281;6.0625;2.79688;0;1.77;2.15;1.99;0;0;0
2934;12510;-33428;3250;14568;-32568;1573218680197824;0.227796;0.785874335;0.617694417;4.32598;4.09265;6.05411;-0.112749;0.0735212;3.8869;-78.384;44.1336;-39.8338;-0.811351;-4.75826;-0.350907;-7.34006;-0.00701576;-0.0141626;6.13281;6.0625;2.79688;0;1.77;2.15;1.99;0;0;0
2946;12456;-33308;3218;14762;-32618;1573218680217835;0.227796;0.785874335;0.617694417;4.32598;4.09265;6.05411;-0.112749;0.0735212;3.8869;-78.384;44.1336;-39.8338;-0.811351;-4.75826;-0.350907;-7.34006;-0.00701576;-0.0141626;6.13281;6.0625;2.79688;0;1.77;2.15;1.99;0;0;0
2944;12442;-33260;3248;14624;-32716;1573218680237922;0.227796;0.785874335;0.617694417;4.32598;4.09265;6.05411;-0.112749;0.0735212;3.8869;-78.384;44.1336;-39.8338;-0.811351;-4.75826;-0.350907;-7.34006;-0.00701576;-0.0141626;6.13281;6.0625;2.79688;0;1.77;2.15;1.99;0;0;0
3026;12416;-33304;3218;14672;-32658;1573218680257857;0.227796;0.785874335;0.617694417;4.32598;4.09265;6.05411;-0.112749;0.0735212;3.8869;-78.384;44.1336;-39.8338;-0.811351;-4.75826;-0.350907;-7.34006;-0.00701576;-0.0141626;6.13281;6.0625;2.79688;0;1.77;2.15;1.99;0;0;0
3040;12432;-33304;3242;14582;-32588;1573218680277833;0.227796;0.785874335;0.617694417;4.32598;4.09265;6.05411;-0.112749;0.0735212;3.8869;-78.384;44.1336;-39.8338;-0.811351;-4.75826;-0.350907;-7.34006;-0.00701576;-0.0141626;6.13281;6.0625;2.79688;0;1.77;2.15;1.99;0;0;0
3036;12386;-33342;3258;14788;-32674;1573218680297839;0.227796;0.785874335;0.617694417;4.32598;4.09265;6.05411;-0.112749;0.0735212;3.8869;-78.384;44.1336;-39.8338;-0.811351;-4.75826;-0.350907;-7.34006;-0.00701576;-0.0141626;6.13281;6.0625;2.79688;0;1.77;2.15;1.99;0;0;0
3064;12352;-33404;3248;14706;-32742;1573218680317805;0.227796;0.785874335;0.617694417;4.32598;4.09265;6.05411;-0.112749;0.0735212;3.8869;-78.384;44.1336;-39.8338;-0.811351;-4.75826;-0.350907;-7.34006;-0.00701576;-0.0141626;6.13281;6.0625;2.79688;0;1.77;2.15;1.99;0;0;0
3046;12324;-33428;3224;14704;-32624;1573218680338046;0.227796;0.785874335;0.617694417;4.32598;4.09265;6.05411;-0.112749;0.0735212;3.8869;-78.384;44.1336;-39.8338;-0.811351;-4.75826;-0.350907;-7.34006;-0.00701576;-0.0141626;6.13281;6.0625;2.79688;0;1.77;2.15;1.99;0;0;0
3060;12354;-33458;3252;14734;-32594;1573218680357884;0.227796;0.785874335;0.617694417;4.32598;4.09265;6.05411;-0.112749;0.0735212;3.8869;-78.384;44.1336;-39.8338;-0.811351;-4.75826;-0.350907;-7.34006;-0.00701576;-0.0141626;6.13281;6.0625;2.79688;0;1.77;2.15;1.99;0;0;0
3014;12268;-33278;3222;14742;-32624;1573218680378061;0.227796;0.785874335;0.617694417;4.32598;4.09265;6.05411;-0.112749;0.0735212;3.8869;-78.384;44.1336;-39.8338;-0.811351;-4.75826;-0.350907;-7.34006;-0.00701576;-0.0141626;6.13281;6.0625;2.79688;0;1.77;2.15;1.99;0;0;0
3014;12268;-33328;3228;14762;-32730;1573218680397790;0.227796;0.785874335;0.617694417;4.33083;4.09265;6.05386;-0.111243;0.0714883;3.8869;-78.384;44.1336;-39.8338;-0.811351;-4.75826;-0.350907;-7.34006;-0.00701576;-0.0141626;6.13281;6.0625;2.79688;0;1.77;2.15;1.99;0;0;0
2998;12278;-33342;3204;14734;-32724;1573218680417806;0.227796;0.785874335;0.617694417;4.33083;4.09265;6.05386;-0.111243;0.0714883;3.8869;-78.384;44.1336;-39.8338;-0.811351;-4.75826;-0.350907;-7.34006;-0.00701576;-0.0141626;6.13281;6.0625;2.79688;0;1.77;2.15;1.99;0;0;0
2982;12288;-33382;3216;14842;-32584;1573218680437838;0.22224;0.785874335;0.617694417;4.33083;3.91677;6.05386;-0.111243;0.0714883;3.8869;-78.384;44.1336;-39.8338;-0.811351;-4.75826;-0.350907;-7.34006;-0.00701576;-0.0141626;6.13281;6.0625;2.79688;0;1.77;2.15;1.99;0;0;0
2972;12238;-33436;3232;14750;-32688;1573218680457819;0.22224;0.785874335;0.617694417;4.33083;3.91677;6.05386;-0.111243;0.0714883;3.8869;-78.384;44.1336;-39.8338;-0.811351;-4.75826;-0.350907;-7.34006;-0.00701576;-0.0141626;6.13281;6.0625;2.79688;0;1.77;2.15;1.99;0;0;0
2976;12254;-33478;3202;14906;-32760;1573218680477909;0.22224;0.785874335;0.617694417;4.33083;3.91677;6.05386;-0.111243;0.0714883;3.8869;-78.384;44.1336;-39.8338;-0.811351;-4.75826;-0.350907;-7.34006;-0.00701576;-0.0141626;6.13281;6.0625;2.79688;0;1.77;2.15;1.99;0;0;0
2970;12202;-33412;3210;14852;-32682;1573218680497793;0.22224;0.785874335;0.617694417;4.33083;3.91677;6.05386;-0.111243;0.0714883;3.8869;-78.384;44.1336;-39.8338;-0.811351;-4.75826;-0.350907;-7.34006;-0.00701576;-0.0141626;6.13281;6.0625;2.79688;0;1.77;2.15;1.99;0;0;0
2976;12270;-33364;3198;14896;-32646;1573218680517832;0.22224;0.785874335;0.617694417;4.33083;3.91677;6.05386;-0.111243;0.0714883;3.8869;-78.384;44.1336;-39.8338;-0.811351;-4.75826;-0.350907;-7.34006;-0.00701576;-0.0141626;6.13281;6.0625;2.79688;0;1.77;2.15;1.99;0;0;0
2946;12202;-33360;3246;14890;-32648;1573218680537856;0.22224;0.785874335;0.617694417;4.33083;3.91677;6.05386;-0.111243;0.0714883;3.8869;-78.384;44.1336;-39.8338;-0.811351;-4.75826;-0.350907;-7.34006;-0.00701576;-0.0141626;6.13281;6.0625;2.79688;0;1.77;2.15;1.99;0;0;0
2980;12178;-33422;3218;14958;-32638;1573218680556891;0.22224;0.785874335;0.617694417;4.33083;3.91677;6.05386;-0.111243;0.0714883;3.8869;-78.384;44.1336;-39.8338;-0.811351;-4.75826;-0.350907;-7.34006;-0.00701576;-0.0141626;6.13281;6.0625;2.79688;0;1.77;2.15;1.99;0;0;0
